id,icao,iata,name,city,state,country,elevation,lat,lon,tz,createdAt,updatedAt
1,00AK,,Lowell Field,Anchor Point,Alaska,US,450,59.94919968,-151.6959991,America/Anchorage,2020-08-18 12:04:00,2020-08-18 12:04:00
2,00AL,,Epps Airpark,Harvest,Alabama,US,820,34.8647995,-86.77030182,America/Chicago,2020-08-18 12:04:00,2020-08-18 12:04:00
3,00AZ,,Cordes Airport,Cordes,Arizona,US,3810,34.30559921,-112.1650009,America/Phoenix,2020-08-18 12:04:00,2020-08-18 12:04:00
4,00CA,,Goldstone /Gts/ Airport,Barstow,California,US,3038,35.3504982,-116.8880005,America/Los_Angeles,2020-08-18 12:04:00,2020-08-18 12:04:00
5,00CO,,Cass Field,Briggsdale,Colorado,US,4830,40.62220001,-104.3440018,America/Denver,2020-08-18 12:04:00,2020-08-18 12:04:00
6,00FA,,Grass Patch Airport,Bushnell,Florida,US,53,28.64550018,-82.21900177,America/New_York,2020-08-18 12:04:00,2020-08-18 12:04:00
7,00FL,,River Oak Airport,Okeechobee,Florida,US,35,27.23089981,-80.96920013,America/New_York,2020-08-18 12:04:00,2020-08-18 12:04:00
8,00GA,,Lt World Airport,Lithonia,Georgia,US,700,33.76750183,-84.06829834,America/New_York,2020-08-18 12:04:00,2020-08-18 12:04:00
9,00ID,,Delta Shores Airport,Clark Fork,Idaho,US,2064,48.14530182,-116.2139969,America/Los_Angeles,2020-08-18 12:04:00,2020-08-18 12:04:00
10,00IL,,Hammer Airport,Polo,Illinois,US,840,41.97840118,-89.56040192,America/Chicago,2020-08-18 12:04:00,2020-08-18 12:04:00
11,00IS,,Hayenga's Cant Find Farms Airport,Kings,Illinois,US,820,40.02560043,-89.12290192,America/Chicago,2020-08-18 12:04:00,2020-08-18 12:04:00
12,00KS,,Hayden Farm Airport,Gardner,Kansas,US,1100,38.72779846,-94.93049622,America/Chicago,2020-08-18 12:04:00,2020-08-18 12:04:00
13,00KY,,Robbins Roost Airport,Stanford,Kentucky,US,1265,37.40940094,-84.61969757,America/New_York,2020-08-18 12:04:00,2020-08-18 12:04:00
14,00LS,,Lejeune Airport,Esterwood,Louisiana,US,12,30.13629913,-92.42939758,America/Chicago,2020-08-18 12:04:00,2020-08-18 12:04:00
15,00MD,,Slater Field,Federalsburg,Maryland,US,45,38.75709915,-75.75379944,America/New_York,2020-08-18 12:04:00,2020-08-18 12:04:00
16,00MN,,Battle Lake Municipal Airport,Battle Lake,Minnesota,US,1365,46.29999924,-95.70030212,America/Chicago,2020-08-18 12:04:00,2020-08-18 12:04:00
17,00MO,,Cooper Flying Service Airport,Alba,Missouri,US,970,37.20280075,-94.41239929,America/Chicago,2020-08-18 12:04:00,2020-08-18 12:04:00
18,00MT,,Sands Ranch Airport,Havre,Montana,US,2600,48.53749847,-109.7050018,America/Denver,2020-08-18 12:04:00,2020-08-18 12:04:00
19,00NC,,North Raleigh Airport,Louisburg,North Carolina,US,348,36.08520126,-78.37139893,America/New_York,2020-08-18 12:04:00,2020-08-18 12:04:00
20,00NY,,Weiss Airfield,West Bloomfield,New York,US,1000,42.90010071,-77.49970245,America/New_York,2020-08-18 12:04:00,2020-08-18 12:04:00
21,00OH,,Exit 3 Airport,Wauseon,Ohio,US,785,41.59090042,-84.14219666,America/New_York,2020-08-18 12:04:00,2020-08-18 12:04:00
22,00PN,,Ferrell Field,Mercer,Pennsylvania,US,1301,41.2995,-80.211111,America/New_York,2020-08-18 12:04:00,2020-08-18 12:04:00
23,00PS,,Thomas Field,Loysville,Pennsylvania,US,815,40.37779999,-77.36530304,America/New_York,2020-08-18 12:04:00,2020-08-18 12:04:00
24,00SC,,Flying O Airport,Sumter,South Carolina,US,150,34.00939941,-80.26719666,America/New_York,2020-08-18 12:04:00,2020-08-18 12:04:00
25,00TN,,Ragsdale Road Airport,Manchester,Tennessee,US,1100,35.51589966,-85.95359802,America/Chicago,2020-08-18 12:04:00,2020-08-18 12:04:00
26,00TS,,Alpine Range Airport,Everman,Texas,US,670,32.60760117,-97.24199677,America/Chicago,2020-08-18 12:04:00,2020-08-18 12:04:00
27,00VA,,Vaughan Airport,Alton,Virginia,US,551,36.57600021,-78.9991684,America/New_York,2020-08-18 12:04:00,2020-08-18 12:04:00
28,00VI,,Groundhog Mountain Airport,Hillsville,Virginia,US,2680,36.66329956,-80.49949646,America/New_York,2020-08-18 12:04:00,2020-08-18 12:04:00
29,00WA,,Howell Airport,Longbranch,Washington,US,150,47.17839813,-122.7720032,America/Los_Angeles,2020-08-18 12:04:00,2020-08-18 12:04:00
30,00WI,,Northern Lite Airport,Waupaca,Wisconsin,US,860,44.3042984,-89.05010223,America/Chicago,2020-08-18 12:04:00,2020-08-18 12:04:00
31,00WN,,Hawks Run Airport,Asotin,Washington,US,2900,46.25,-117.2490005,America/Los_Angeles,2020-08-18 12:04:00,2020-08-18 12:04:00
32,00WV,,Lazy J. Aerodrome,Beverly,West Virginia,US,2060,38.82889938,-79.8660965,America/New_York,2020-08-18 12:04:00,2020-08-18 12:04:00
33,00XS,,L P Askew Farms Airport,O'Donnell,Texas,US,3110,33.03340149,-101.9339981,America/Chicago,2020-08-18 12:04:00,2020-08-18 12:04:00
34,01AL,,Ware Island Airport,Clanton,Alabama,US,344,32.94599915,-86.51390076,America/Chicago,2020-08-18 12:04:00,2020-08-18 12:04:00
35,01CL,,Swansboro Country Airport,Placerville,California,US,2594,38.79990005,-120.7340012,America/Los_Angeles,2020-08-18 12:04:00,2020-08-18 12:04:00
36,01FA,,Rybolt Ranch Airport,Orlando,Florida,US,55,28.58939934,-81.14420319,America/New_York,2020-08-18 12:04:00,2020-08-18 12:04:00
37,01FL,,Cedar Knoll Flying Ranch Airport,Geneva,Florida,US,19,28.78190041,-81.15920258,America/New_York,2020-08-18 12:04:00,2020-08-18 12:04:00
38,01GE,,The Farm Airport,Wrightsville,Georgia,US,375,32.67440033,-82.77110291,America/New_York,2020-08-18 12:04:00,2020-08-18 12:04:00
39,01IA,,Stender Airport,Maysville,Iowa,US,725,41.66109848,-90.74130249,America/Chicago,2020-08-18 12:04:00,2020-08-18 12:04:00
40,01ID,,Lava Hot Springs Airport,Lava Hot Springs,Idaho,US,5268,42.60820007,-112.0319977,America/Boise,2020-08-18 12:04:00,2020-08-18 12:04:00
41,01II,,Myers Field,Lizton,Indiana,US,950,39.88499832,-86.50669861,America/Indiana/Indianapolis,2020-08-18 12:04:00,2020-08-18 12:04:00
42,01IS,,William E. Koenig Airport,Dow,Illinois,US,670,39.01620102,-90.31819916,America/Chicago,2020-08-18 12:04:00,2020-08-18 12:04:00
43,01KS,,Flying N Ranch Airport,Lost Springs,Kansas,US,1485,38.54059982,-97.00330353,America/Chicago,2020-08-18 12:04:00,2020-08-18 12:04:00
44,01LA,,Barham Airport,Oak Ridge,Louisiana,US,90,32.63899994,-91.7736969,America/Chicago,2020-08-18 12:04:00,2020-08-18 12:04:00
45,01LL,,Schumaier Restricted Landing Area,Pinckneyville,Illinois,US,555,38.12580109,-89.46389771,America/Chicago,2020-08-18 12:04:00,2020-08-18 12:04:00
46,01LS,,Country Breeze Airport,Slaughter,Louisiana,US,125,30.70599937,-91.07740021,America/Chicago,2020-08-18 12:04:00,2020-08-18 12:04:00
47,01MT,,Crystal Lakes Resort Airport,Fortine,Montana,US,3141,48.78910065,-114.8799973,America/Denver,2020-08-18 12:04:00,2020-08-18 12:04:00
48,01NC,,Topsail Airpark,Holly Ridge,North Carolina,US,65,34.47529984,-77.58139801,America/New_York,2020-08-18 12:04:00,2020-08-18 12:04:00
49,01NE,,Detour Airport,Wellfleet,Nebraska,US,3000,40.84360123,-100.6529999,America/Chicago,2020-08-18 12:04:00,2020-08-18 12:04:00
50,01NH,,Moore Airfield,Enfield,New Hampshire,US,835,43.64450073,-72.08699799,America/New_York,2020-08-18 12:04:00,2020-08-18 12:04:00
51,01NM,,Champion Ranch Airport,Artesia,New Mexico,US,3630,33.008611,-104.540278,America/Denver,2020-08-18 12:04:00,2020-08-18 12:04:00
52,01NV,,Lantana Ranch Airport,Yerington,Nevada,US,4600,38.76390076,-119.0270004,America/Los_Angeles,2020-08-18 12:04:00,2020-08-18 12:04:00
53,01OK,,Lawrence Airport,Eakly,Oklahoma,US,1525,35.29449844,-98.6364975,America/Chicago,2020-08-18 12:04:00,2020-08-18 12:04:00
54,01OR,,Red & White Flying Service Airport,Silver Lake,Oregon,US,4346,43.11930084,-121.0449982,America/Los_Angeles,2020-08-18 12:04:00,2020-08-18 12:04:00
55,01PN,,Bierly(Personal Use) Airport,Bellefonte,Pennsylvania,US,960,40.93059921,-77.73889923,America/New_York,2020-08-18 12:04:00,2020-08-18 12:04:00
56,01PS,,Nort's Resort Airport,Meshoppen,Pennsylvania,US,1040,41.59590149,-76.02960205,America/New_York,2020-08-18 12:04:00,2020-08-18 12:04:00
57,01SC,,York Airport,York,South Carolina,US,779,35.03210068,-81.25279999,America/New_York,2020-08-18 12:04:00,2020-08-18 12:04:00
58,01TE,,Smith Field,Forney,Texas,US,505,32.73759842,-96.4280014,America/Chicago,2020-08-18 12:04:00,2020-08-18 12:04:00
59,01TN,,Colonial Air Park,Collierville,Tennessee,US,370,34.9958992,-89.73059845,America/Chicago,2020-08-18 12:04:00,2020-08-18 12:04:00
60,01TX,,Mims Farm Ultralightport,Waxahachie,Texas,US,610,32.38759995,-96.87750244,America/Chicago,2020-08-18 12:04:00,2020-08-18 12:04:00
61,01UT,,La Sal Junction Airport,La Sal,Utah,US,6000,38.30830002,-109.3960037,America/Denver,2020-08-18 12:04:00,2020-08-18 12:04:00
62,01VA,,Pickles Airport,Berryville,Virginia,US,500,39.125,-77.92500305,America/New_York,2020-08-18 12:04:00,2020-08-18 12:04:00
63,01WI,,Prehn Cranberry Company Airport,Tomah,Wisconsin,US,930,44.00999832,-90.3891983,America/Chicago,2020-08-18 12:04:00,2020-08-18 12:04:00
64,01WY,,Keyhole Airport,Moorcroft,Wyoming,US,4250,44.34719849,-104.810997,America/Denver,2020-08-18 12:04:00,2020-08-18 12:04:00
65,02AK,,Rustic Wilderness Airport,Willow,Alaska,US,190,61.87689972,-150.0980072,America/Anchorage,2020-08-18 12:04:00,2020-08-18 12:04:00
66,02AL,,Bass Field,Foley,Alabama,US,61,30.37150002,-87.76439667,America/Chicago,2020-08-18 12:04:00,2020-08-18 12:04:00
67,02AR,,Three Rivers Airport,Little Rock,Arkansas,US,264,34.82244492,-92.44441986,America/Chicago,2020-08-18 12:04:00,2020-08-18 12:04:00
68,02AZ,,Winchester Farm Airstrip,Willcox,Arizona,US,4200,32.37639999,-109.9369965,America/Phoenix,2020-08-18 12:04:00,2020-08-18 12:04:00
69,02CD,,Shannon Field,Clarksdale,Mississippi,US,165,34.12960052,-90.52400208,America/Chicago,2020-08-18 12:04:00,2020-08-18 12:04:00
70,02CL,,Conover Air Lodge Airport,Frazier Park,California,US,5160,34.76110077,-119.0589981,America/Los_Angeles,2020-08-18 12:04:00,2020-08-18 12:04:00
71,02CO,,Mc Cullough Airport,Monte Vista,Colorado,US,7615,37.6432991,-106.0469971,America/Denver,2020-08-18 12:04:00,2020-08-18 12:04:00
72,02FA,,Osborn Airfield,Groveland,Florida,US,121,28.52669907,-81.87480164,America/New_York,2020-08-18 12:04:00,2020-08-18 12:04:00
73,02FL,,Cuchens Airport,Defuniak Springs,Florida,US,215,30.642778,-86.123889,America/Chicago,2020-08-18 12:04:00,2020-08-18 12:04:00
74,02GA,,Doug Bolton Field,Commerce,Georgia,US,884,34.20259857,-83.42900085,America/New_York,2020-08-18 12:04:00,2020-08-18 12:04:00
75,02GE,,Etowah Fields Airport,Euharlee,Georgia,US,710,34.1753006,-84.92440033,America/New_York,2020-08-18 12:04:00,2020-08-18 12:04:00
76,02ID,,Morgan Ranch Airport,Cascade,Idaho,US,5634,44.55550003,-115.3050003,America/Boise,2020-08-18 12:04:00,2020-08-18 12:04:00
77,02II,,King Ultralightport,Westfield,Indiana,US,925,40.06230164,-86.21050262,America/Indiana/Indianapolis,2020-08-18 12:04:00,2020-08-18 12:04:00
78,02IN,,Diamond P. Field,Muncie,Indiana,US,904,40.20890045,-85.540802,America/Indiana/Indianapolis,2020-08-18 12:04:00,2020-08-18 12:04:00
79,02KS,,Jmj Landing Airport,St Marys,Kansas,US,1170,39.22219849,-96.05529785,America/Chicago,2020-08-18 12:04:00,2020-08-18 12:04:00
80,02ME,,Old Acton Airfield,Acton,Maine,US,700,43.53730011,-70.92939758,America/New_York,2020-08-18 12:04:00,2020-08-18 12:04:00
81,02MI,,Fairplains Airpark,Greenville,Michigan,US,850,43.15710068,-85.14849854,America/Detroit,2020-08-18 12:04:00,2020-08-18 12:04:00
82,02MN,,Greenbush Municipal Airport,Greenbush,Minnesota,US,1070,48.68330002,-96.19200134,America/Chicago,2020-08-18 12:04:00,2020-08-18 12:04:00
83,02MO,,Troy Airpark,Troy,Missouri,US,650,39.04999924,-91.03350067,America/Chicago,2020-08-18 12:04:00,2020-08-18 12:04:00
84,02MS,,Watts Field,Rochdale,Mississippi,US,153,34.10010147,-90.84680176,America/Chicago,2020-08-18 12:04:00,2020-08-18 12:04:00
85,02MT,,Barrett Field,Cascade,Montana,US,3350,47.23740005,-111.7419968,America/Denver,2020-08-18 12:04:00,2020-08-18 12:04:00
86,02MU,,Timber Line Airpark,Cassville,Missouri,US,1550,36.65420151,-93.79740143,America/Chicago,2020-08-18 12:04:00,2020-08-18 12:04:00
87,02NE,,Benes Service Airport,Valparaiso,Nebraska,US,1550,41.07450104,-96.90450287,America/Chicago,2020-08-18 12:04:00,2020-08-18 12:04:00
88,02NV,,Paiute Meadows Airport,Winnemucca,Nevada,US,4443,41.30329895,-118.5979996,America/Los_Angeles,2020-08-18 12:04:00,2020-08-18 12:04:00
89,02OH,,Zimmerman Airport,Fremont,Ohio,US,614,41.37639999,-83.08329773,America/New_York,2020-08-18 12:04:00,2020-08-18 12:04:00
90,02OI,,Murtha Airport,Conneaut,Ohio,US,950,41.80199814,-80.56539917,America/New_York,2020-08-18 12:04:00,2020-08-18 12:04:00
91,02OR,,Rowena Dell Airport,The Dalles,Oregon,US,705,45.68149948,-121.3160019,America/Los_Angeles,2020-08-18 12:04:00,2020-08-18 12:04:00
92,02PR,,Cuylers Airport,Vega Baja,Vega Baja,PR,15,18.45330048,-66.36689758,America/Puerto_Rico,2020-08-18 12:04:00,2020-08-18 12:04:00
93,02PS,,Hughes Ultralightport,Tioga,Pennsylvania,US,1700,41.90060043,-77.2303009,America/New_York,2020-08-18 12:04:00,2020-08-18 12:04:00
94,02SC,,Harpers Airport,Estill,South Carolina,US,111,32.75849915,-81.22480011,America/New_York,2020-08-18 12:04:00,2020-08-18 12:04:00
95,02TN,,Ellis Field,Murfreesboro,Tennessee,US,840,35.7806015,-86.584198,America/Chicago,2020-08-18 12:04:00,2020-08-18 12:04:00
96,02TX,,The Palms At Kitty Hawk Airport,New Home,Texas,US,3235,33.37040329,-101.9228821,America/Chicago,2020-08-18 12:04:00,2020-08-18 12:04:00
97,02UT,,Lucin Airport,Lucin,Utah,US,4412,41.36629868,-113.8430023,America/Denver,2020-08-18 12:04:00,2020-08-18 12:04:00
98,02VA,,The Greenhouse Airport,Culpeper,Virginia,US,320,38.43569946,-77.85720062,America/New_York,2020-08-18 12:04:00,2020-08-18 12:04:00
99,02WA,,Cawleys South Prairie Airport,South Prairie,Washington,US,690,47.15230179,-122.0940018,America/Los_Angeles,2020-08-18 12:04:00,2020-08-18 12:04:00
100,02WI,,Beer Airport,Hudson,Wisconsin,US,920,45.0318985,-92.65579987,America/Chicago,2020-08-18 12:04:00,2020-08-18 12:04:00
101,02WN,,Fowler Field,Tonasket,Washington,US,2150,48.74580002,-119.3190002,America/Los_Angeles,2020-08-18 12:04:00,2020-08-18 12:04:00
102,02XS,,Seidel Ranch Airport,Elroy,Texas,US,510,30.14769936,-97.66280365,America/Chicago,2020-08-18 12:04:00,2020-08-18 12:04:00
103,03AZ,,Thompson International Aviation Airport,Hereford,Arizona,US,4275,31.4333992,-110.0839996,America/Phoenix,2020-08-18 12:04:00,2020-08-18 12:04:00
104,03CO,,Kugel-Strong Airport,Platteville,Colorado,US,4950,40.21250153,-104.7440033,America/Denver,2020-08-18 12:04:00,2020-08-18 12:04:00
105,03FA,,Lake Persimmon Airstrip,Lake Placid,Florida,US,70,27.35309982,-81.40809631,America/New_York,2020-08-18 12:04:00,2020-08-18 12:04:00
106,03FD,,Tharpe Airport,Bonifay,Florida,US,115,30.8288002,-85.73100281,America/New_York,2020-08-18 12:04:00,2020-08-18 12:04:00
107,03IA,,East Field,Montezuma,Iowa,US,954,41.58190155,-92.46130371,America/Chicago,2020-08-18 12:04:00,2020-08-18 12:04:00
108,03ID,,Flying Y Ranch Airport,Council,Idaho,US,3180,44.79430008,-116.5329971,America/Boise,2020-08-18 12:04:00,2020-08-18 12:04:00
109,03II,,Davis Field Ultralightport,Mount Vernon,Indiana,US,465,37.9620018,-87.77890015,America/Chicago,2020-08-18 12:04:00,2020-08-18 12:04:00
110,03IL,,Wix Airport,Monee,Illinois,US,750,41.40230179,-87.8167038,America/Chicago,2020-08-18 12:04:00,2020-08-18 12:04:00
111,03IN,,Heinzman Airport,Arcadia,Indiana,US,850,40.18000031,-86.01249695,America/Indiana/Indianapolis,2020-08-18 12:04:00,2020-08-18 12:04:00
112,03KY,,Flying H Farms Airport,Henderson,Kentucky,US,385,37.79169846,-87.54139709,America/Chicago,2020-08-18 12:04:00,2020-08-18 12:04:00
113,03MA,,Hadley Airport,Hadley,Massachusetts,US,150,42.39310074,-72.55200195,America/New_York,2020-08-18 12:04:00,2020-08-18 12:04:00
114,03ME,,Maple Ridge Airport,Harrison,Maine,US,556,44.08420181,-70.62729645,America/New_York,2020-08-18 12:04:00,2020-08-18 12:04:00
115,03MN,,Nauerth Land Ranch Airport,Lakefield,Minnesota,US,1435,43.62519836,-95.22470093,America/Chicago,2020-08-18 12:04:00,2020-08-18 12:04:00
116,03MO,,Cahoochie Airport,Urbana,Missouri,US,1010,37.8844986,-93.13159943,America/Chicago,2020-08-18 12:04:00,2020-08-18 12:04:00
117,03MT,,Cascade Airport,Cascade,Montana,US,3580,47.27080154,-111.7220001,America/Denver,2020-08-18 12:04:00,2020-08-18 12:04:00
118,03MU,,Mc Donnell Airport,Archie,Missouri,US,874,38.49250031,-94.41249847,America/Chicago,2020-08-18 12:04:00,2020-08-18 12:04:00
119,03NC,,Pilots Ridge Airport,Carolina Beach,North Carolina,US,35,34.10430145,-77.90419769,America/New_York,2020-08-18 12:04:00,2020-08-18 12:04:00
120,03ND,,Olafson Brothers Airport,Edinburg,North Dakota,US,1045,48.62639999,-97.82900238,America/Chicago,2020-08-18 12:04:00,2020-08-18 12:04:00
121,03NE,,Hyde Ranch Airport,Comstock,Nebraska,US,2430,41.54639816,-99.33119965,America/Chicago,2020-08-18 12:04:00,2020-08-18 12:04:00
122,03NV,,Llama Ranch Airport,Ruby Valley,Nevada,US,6120,40.58440018,-115.2979965,America/Los_Angeles,2020-08-18 12:04:00,2020-08-18 12:04:00
123,03NY,,Talmage Field,Riverhead,New York,US,95,40.95840073,-72.71679688,America/New_York,2020-08-18 12:04:00,2020-08-18 12:04:00
124,03OH,,Gibbs Field,Fremont,Ohio,US,580,41.41839981,-83.01740265,America/New_York,2020-08-18 12:04:00,2020-08-18 12:04:00
125,03OK,,Sahoma Lake Airport,Sapulpa,Oklahoma,US,890,36.04119873,-96.16139984,America/Chicago,2020-08-18 12:04:00,2020-08-18 12:04:00
126,03OR,,Powwatka Ridge Airport,Troy,Oregon,US,3340,45.85540009,-117.4840012,America/Los_Angeles,2020-08-18 12:04:00,2020-08-18 12:04:00
127,03PS,,Ziggy's Field,Bellefonte,Pennsylvania,US,1050,40.84999847,-77.9056015,America/New_York,2020-08-18 12:04:00,2020-08-18 12:04:00
128,03TA,,Gay Hill Farm Airport,Gay Hill,Texas,US,505,30.26269913,-96.50019836,America/Chicago,2020-08-18 12:04:00,2020-08-18 12:04:00
129,03TE,,Barronena Ranch Airport,Hebbronville,Texas,US,600,27.49110031,-98.66950226,America/Chicago,2020-08-18 12:04:00,2020-08-18 12:04:00
130,03UT,,A Z Minerals Corporation Airport,Mexican Hat,Utah,US,5315,37.12080002,-109.9860001,America/Denver,2020-08-18 12:04:00,2020-08-18 12:04:00
131,03WA,,Spangle Field,Spangle,Washington,US,2440,47.40819931,-117.3720016,America/Los_Angeles,2020-08-18 12:04:00,2020-08-18 12:04:00
132,03WI,,Zink Airport,Berlin,Wisconsin,US,880,44.02750015,-88.88089752,America/Chicago,2020-08-18 12:04:00,2020-08-18 12:04:00
133,03WN,,Aerostone Ranch Airport,Goldendale,Washington,US,2320,45.875,-120.6699982,America/Los_Angeles,2020-08-18 12:04:00,2020-08-18 12:04:00
134,03XS,,Creekside Airport,Mertzon,Texas,US,2100,31.31809998,-100.7539978,America/Chicago,2020-08-18 12:04:00,2020-08-18 12:04:00
135,04AZ,,Chinle Airport,Chinle,Arizona,US,5515,36.15420151,-109.5510025,America/Denver,2020-08-18 12:04:00,2020-08-18 12:04:00
136,04CA,,Gray Butte Field,Palmdale,California,US,3020,34.56389999,-117.6750031,America/Los_Angeles,2020-08-18 12:04:00,2020-08-18 12:04:00
137,04CL,,Hunt's Sky Ranch Airport,Julian,California,US,2310,33.08169937,-116.4410019,America/Los_Angeles,2020-08-18 12:04:00,2020-08-18 12:04:00
138,04FA,,Richards Field,Homestead,Florida,US,9,25.55870056,-80.51509857,America/New_York,2020-08-18 12:04:00,2020-08-18 12:04:00
139,04FL,,Cross Creek Farms Airport,Ormond,Florida,US,30,29.23940086,-81.22200012,America/New_York,2020-08-18 12:04:00,2020-08-18 12:04:00
140,04IA,,Middlekoop Airport,Packwood,Iowa,US,801,41.0882988,-92.05460358,America/Chicago,2020-08-18 12:04:00,2020-08-18 12:04:00
141,04ID,,Lanham Field,Emmett,Idaho,US,2343,43.87770081,-116.5370026,America/Boise,2020-08-18 12:04:00,2020-08-18 12:04:00
142,04II,,Turkey Run Airport,New Haven,Indiana,US,765,41.13059998,-84.99410248,America/Indiana/Indianapolis,2020-08-18 12:04:00,2020-08-18 12:04:00
143,04IL,,Schertz Aerial Service - Hudson Airport,Hudson,Illinois,US,755,40.63750076,-89.00700378,America/Chicago,2020-08-18 12:04:00,2020-08-18 12:04:00
144,04IS,,Van Gorder Airport,Mansfield,Illinois,US,728,40.17860031,-88.56900024,America/Chicago,2020-08-18 12:04:00,2020-08-18 12:04:00
145,04KY,,Natchez Trace Farm Airport,Hiseville,Kentucky,US,710,37.13510132,-85.78939819,America/Chicago,2020-08-18 12:04:00,2020-08-18 12:04:00
146,04LL,,Brunner Airport,West Dundee,Illinois,US,750,42.13610077,-88.28759766,America/Chicago,2020-08-18 12:04:00,2020-08-18 12:04:00
147,04ME,,Beech Hill Airport,Mercer,Maine,US,625,44.66669846,-69.89389801,America/New_York,2020-08-18 12:04:00,2020-08-18 12:04:00
148,04MI,,Rapids Airway Airport,Eaton Rapids,Michigan,US,880,42.53450012,-84.62830353,America/Detroit,2020-08-18 12:04:00,2020-08-18 12:04:00
149,04MN,,Helblad Airport,Kelliher,Minnesota,US,1195,47.9858017,-94.68689728,America/Chicago,2020-08-18 12:04:00,2020-08-18 12:04:00
150,04MO,,Airpark Private Airport,Vandalia,Missouri,US,767,39.30120087,-91.45149994,America/Chicago,2020-08-18 12:04:00,2020-08-18 12:04:00
151,04MS,,Nick's Flying Service Inc Airport,Rolling Fork,Mississippi,US,100,32.9396019,-90.83730316,America/Chicago,2020-08-18 12:04:00,2020-08-18 12:04:00
152,04MT,,Pluhar Airport,Cohagen,Montana,US,2715,47.13749778,-106.488095,America/Denver,2020-08-18 12:04:00,2020-08-18 12:04:00
153,04NE,,Mc Connell Field Airport,Sarben,Nebraska,US,3035,41.15999985,-101.2990036,America/Denver,2020-08-18 12:04:00,2020-08-18 12:04:00
154,04NJ,,Emmanuel Airport,Elmer,New Jersey,US,155,39.59680176,-75.23349762,America/New_York,2020-08-18 12:04:00,2020-08-18 12:04:00
155,04NV,,Kingston Ranch Airport,Sandy Valley,California,US,2620,35.75550079,-115.6650009,America/Los_Angeles,2020-08-18 12:04:00,2020-08-18 12:04:00
156,04NY,,Klaverack Airport,Hudson,New York,US,250,42.26229858,-73.69619751,America/New_York,2020-08-18 12:04:00,2020-08-18 12:04:00
157,04OH,,Bossow Airport,Garrettsville,Ohio,US,1080,41.24769974,-81.10070038,America/New_York,2020-08-18 12:04:00,2020-08-18 12:04:00
158,04OR,,Collins Landing Strip,Mitchell,Oregon,US,1500,44.74990082,-120.2009964,America/Los_Angeles,2020-08-18 12:04:00,2020-08-18 12:04:00
159,04TN,,Hensley Airpark,Chuckey,Tennessee,US,1430,36.18330002,-82.67890167,America/New_York,2020-08-18 12:04:00,2020-08-18 12:04:00
160,04TX,,Pocock Airport,China Spring,Texas,US,565,31.73220062,-97.36889648,America/Chicago,2020-08-18 12:04:00,2020-08-18 12:04:00
161,04UT,,Navajo Mountain Airport,Navajo Mountain Trdng Post,Utah,US,6160,37.00830078,-110.7949982,America/Denver,2020-08-18 12:04:00,2020-08-18 12:04:00
162,04VG,,Manquin Flight Park Ultralightport,Manquin,Virginia,US,50,37.71440125,-77.21179962,America/New_York,2020-08-18 12:04:00,2020-08-18 12:04:00
163,04VT,,Lightning Bolt Field Airport,Cabot,Vermont,US,2156,44.40110016,-72.26360321,America/New_York,2020-08-18 12:04:00,2020-08-18 12:04:00
164,04WA,,Ox Meadows Airport,Spokane,Washington,US,2345,47.58179855,-117.4369965,America/Los_Angeles,2020-08-18 12:04:00,2020-08-18 12:04:00
165,04WI,,Dutch Gap Airstrip,Bristol,Wisconsin,US,760,42.52339935,-88.01670074,America/Chicago,2020-08-18 12:04:00,2020-08-18 12:04:00
166,04WN,,Stillwater Creek Airport,Royal City,Washington,US,1510,46.963889,-119.641667,America/Los_Angeles,2020-08-18 12:04:00,2020-08-18 12:04:00
167,05AK,,Wasilla Creek Airpark,Palmer,Alaska,US,620,61.66830063,-149.1880035,America/Anchorage,2020-08-18 12:04:00,2020-08-18 12:04:00
168,05AR,,Ozark Skies Airpark,Kingston,Arkansas,US,1900,36.000633,-93.57025,America/Chicago,2020-08-18 12:04:00,2020-08-18 12:04:00
169,05CL,,Pope Valley Airport,Pope Valley,California,US,618,38.6106987,-122.3909988,America/Los_Angeles,2020-08-18 12:04:00,2020-08-18 12:04:00
170,05CO,,Rancho De Aereo Airport,Mead,Colorado,US,4978,40.2149839,-104.9844228,America/Denver,2020-08-18 12:04:00,2020-08-18 12:04:00
171,05FA,,Melanie's Airport,Florala,Florida,US,295,30.91889954,-86.21829987,America/Chicago,2020-08-18 12:04:00,2020-08-18 12:04:00
172,05FL,,Charlton Strip,La Belle,Florida,US,36,26.5230999,-81.40830231,America/New_York,2020-08-18 12:04:00,2020-08-18 12:04:00
173,05GA,,Raju Airport,Richland,Georgia,US,625,32.07139969,-84.71440125,America/New_York,2020-08-18 12:04:00,2020-08-18 12:04:00
174,05IA,,Spotts Field,Nora Springs,Iowa,US,1155,43.13750076,-93.06829834,America/Chicago,2020-08-18 12:04:00,2020-08-18 12:04:00
175,05ID,,Running Creek Ranch Airport,Grangeville,Idaho,US,2969,45.91410065,-114.8359985,America/Los_Angeles,2020-08-18 12:04:00,2020-08-18 12:04:00
176,05II,,Reichhart Airport,New Haven,Indiana,US,795,41.02870178,-84.99720001,America/Indiana/Indianapolis,2020-08-18 12:04:00,2020-08-18 12:04:00
177,05IL,,Classic Landings Airport,Bonfield,Illinois,US,635,41.15670013,-88.01670074,America/Chicago,2020-08-18 12:04:00,2020-08-18 12:04:00
178,05IN,,Cooper Airport,Belleville,Indiana,US,860,39.64199829,-86.5042038,America/Indiana/Indianapolis,2020-08-18 12:04:00,2020-08-18 12:04:00
179,05IS,,Hardy Airport,Mount Auburn,Illinois,US,605,39.72589874,-89.26399994,America/Chicago,2020-08-18 12:04:00,2020-08-18 12:04:00
180,05KS,,Darbro Field,Elk City,Kansas,US,945,37.26620102,-95.959198,America/Chicago,2020-08-18 12:04:00,2020-08-18 12:04:00
181,05KY,,Cartersville Airport,Berea,Kentucky,US,1070,37.53689957,-84.40720367,America/New_York,2020-08-18 12:04:00,2020-08-18 12:04:00
182,05LA,,Greg's Flying Service Airport,Baskin,Louisiana,US,76,32.26530075,-91.69779968,America/Chicago,2020-08-18 12:04:00,2020-08-18 12:04:00
183,05LS,,Grass Roots Airport,Alexandria,Louisiana,US,83,31.25219917,-92.47579956,America/Chicago,2020-08-18 12:04:00,2020-08-18 12:04:00
184,05MD,,Breezecroft Airport,Chestertown,Maryland,US,20,39.25009918,-76.2052002,America/New_York,2020-08-18 12:04:00,2020-08-18 12:04:00
185,05ME,,Drisko Airport,Jonesboro,Maine,US,70,44.6570015,-67.55919647,America/New_York,2020-08-18 12:04:00,2020-08-18 12:04:00
186,05NE,,Mc Kay Airport,Spalding,Nebraska,US,2010,41.72219849,-98.30899811,America/Chicago,2020-08-18 12:04:00,2020-08-18 12:04:00
187,05OI,,Dorlon Airpark,Columbia Station,Ohio,US,830,41.28839874,-81.96260071,America/New_York,2020-08-18 12:04:00,2020-08-18 12:04:00
188,05OK,,Hawk Haven Airport,Crescent,Oklahoma,US,1075,35.85340118,-97.56749725,America/Chicago,2020-08-18 12:04:00,2020-08-18 12:04:00
189,05OR,,Peacock Ranch Airport,Enterprise,Oregon,US,3500,45.44150162,-117.3509979,America/Los_Angeles,2020-08-18 12:04:00,2020-08-18 12:04:00
190,05PS,,Mills Brothers Airport,Burnt Cabins,Pennsylvania,US,1210,40.14279938,-77.86190033,America/New_York,2020-08-18 12:04:00,2020-08-18 12:04:00
191,05TA,,Brandes Air Field,Sealy,Texas,US,276,29.8090992,-96.26509857,America/Chicago,2020-08-18 12:04:00,2020-08-18 12:04:00
192,05TE,,Hilde-Griff Field,Georgetown,Texas,US,950,30.7220993,-97.79139709,America/Chicago,2020-08-18 12:04:00,2020-08-18 12:04:00
193,05TS,,Dew Drop Airport,Justin,Texas,US,750,33.12929916,-97.3585968,America/Chicago,2020-08-18 12:04:00,2020-08-18 12:04:00
194,05TX,,Circle 'A' Ranch Airport,Blum,Texas,US,608,32.12919998,-97.40419769,America/Chicago,2020-08-18 12:04:00,2020-08-18 12:04:00
195,05UT,,Oljato Airport,Oljato,Utah,US,4838,37.03329849,-110.3170013,America/Denver,2020-08-18 12:04:00,2020-08-18 12:04:00
196,05VA,,Providence Airport,Farmville,Virginia,US,445,37.2242012,-78.41860199,America/New_York,2020-08-18 12:04:00,2020-08-18 12:04:00
197,05WI,,Ames Private Airport,Darien,Wisconsin,US,958,42.65110016,-88.74590302,America/Chicago,2020-08-18 12:04:00,2020-08-18 12:04:00
198,05WN,,Flat Creek Field,Kettle Falls,Washington,US,1570,48.702222,-118.0475,America/Los_Angeles,2020-08-18 12:04:00,2020-08-18 12:04:00
199,05XS,,Johnson Memorial Airport,Wilmot,Arkansas,US,105,33.07929993,-91.54319763,America/Chicago,2020-08-18 12:04:00,2020-08-18 12:04:00
200,06AK,,June Lake Airpark,Wasilla,Alaska,US,425,61.627619,-149.575331,America/Anchorage,2020-08-18 12:04:00,2020-08-18 12:04:00
201,06AR,,Bondair Airport,Higden,Arkansas,US,499,35.54449844,-92.18489838,America/Chicago,2020-08-18 12:04:00,2020-08-18 12:04:00
202,06CO,,Jecan Airport,Branson,Colorado,US,5100,37.38750076,-103.6910019,America/Denver,2020-08-18 12:04:00,2020-08-18 12:04:00
203,06FA,,William P Gwinn Airport,Jupiter,Florida,US,28,26.90839958,-80.3289032,America/New_York,2020-08-18 12:04:00,2020-08-18 12:04:00
204,06FD,,Grass Roots Airpark,Mascotte,Florida,US,105,28.64170074,-81.88500214,America/New_York,2020-08-18 12:04:00,2020-08-18 12:04:00
205,06IA,,Rich Field,Walford,Iowa,US,880,41.84140015,-91.83429718,America/Chicago,2020-08-18 12:04:00,2020-08-18 12:04:00
206,06ID,,Larkin Airport,Kuna,Idaho,US,2750,43.46269989,-116.3590012,America/Boise,2020-08-18 12:04:00,2020-08-18 12:04:00
207,06IL,,Humm Airport,Earlville,Illinois,US,708,41.59949875,-88.86990356,America/Chicago,2020-08-18 12:04:00,2020-08-18 12:04:00
208,06IN,,Ellis Fly-In Airport,Blackhawk,Indiana,US,575,39.28279877,-87.3035965,America/Indiana/Indianapolis,2020-08-18 12:04:00,2020-08-18 12:04:00
209,06IS,,Sinele Strip,Nauvoo,Illinois,US,695,40.54639816,-91.27429962,America/Chicago,2020-08-18 12:04:00,2020-08-18 12:04:00
210,06MN,,Pike Field Airport,Virginia,Minnesota,US,1463,47.65190125,-92.41670227,America/Chicago,2020-08-18 12:04:00,2020-08-18 12:04:00
211,06MO,,Noahs Ark Airport,Waldron,Missouri,US,755,39.23059845,-94.80439758,America/Chicago,2020-08-18 12:04:00,2020-08-18 12:04:00
212,06MT,,Torgerson Airport,Ethridge,Montana,US,3541,48.55830002,-112.1090012,America/Denver,2020-08-18 12:04:00,2020-08-18 12:04:00
213,06NC,,Tailwinds Airport,St. Pauls,North Carolina,US,163,34.82749939,-78.93029785,America/New_York,2020-08-18 12:04:00,2020-08-18 12:04:00
214,06ND,,Fitterer's Strip,Glen Ullin,North Dakota,US,2180,46.74890137,-101.6689987,America/North_Dakota/New_Salem,2020-08-18 12:04:00,2020-08-18 12:04:00
215,06NH,,Cole Farm Airport,Kensington,New Hampshire,US,160,42.92839813,-70.97309875,America/New_York,2020-08-18 12:04:00,2020-08-18 12:04:00
216,06NY,,Murphy Field,Auburn,New York,US,1100,42.84280014,-76.44529724,America/New_York,2020-08-18 12:04:00,2020-08-18 12:04:00
217,06OH,,Hal Joy Airfield,Williamsfield,Ohio,US,1160,41.50979996,-80.59120178,America/New_York,2020-08-18 12:04:00,2020-08-18 12:04:00
218,06OI,,Green Acres Airport,New Lebanon,Ohio,US,915,39.73479843,-84.38220215,America/New_York,2020-08-18 12:04:00,2020-08-18 12:04:00
219,06OR,,Hayden Mountain Airport,Forest Grove,Oregon,US,850,45.46509933,-123.0800018,America/Los_Angeles,2020-08-18 12:04:00,2020-08-18 12:04:00
220,06PA,,Freefall Oz Airport,Ceres,New York,US,1440,42.00839996,-78.25810242,America/New_York,2020-08-18 12:04:00,2020-08-18 12:04:00
221,06SN,,Beyer Farm Airport,Derby,Kansas,US,1340,37.58390045,-97.25309753,America/Chicago,2020-08-18 12:04:00,2020-08-18 12:04:00
222,06TA,,Glaser Field,Buckholts,Texas,US,480,30.90850067,-97.11689758,America/Chicago,2020-08-18 12:04:00,2020-08-18 12:04:00
223,06TE,,Ainsworth Airport,Cleveland,Texas,US,129,30.31270027,-95.02690125,America/Chicago,2020-08-18 12:04:00,2020-08-18 12:04:00
224,06TN,,Hunter STOLport,Columbia,Tennessee,US,640,35.69729996,-86.95690155,America/Chicago,2020-08-18 12:04:00,2020-08-18 12:04:00
225,06TS,,Roscoe Mc Connico Airport,Kerens,Texas,US,350,32.12070084,-96.17910004,America/Chicago,2020-08-18 12:04:00,2020-08-18 12:04:00
226,06TX,,Diamond N Ranch Airport,Hockley,Texas,US,215,30.05760002,-95.81289673,America/Chicago,2020-08-18 12:04:00,2020-08-18 12:04:00
227,06R,,Grawunder Field Airport,Bellville,Texas,US,89,29.94097222,-96.24525,America/Chicago,2020-08-18 12:04:00,2020-08-18 12:04:00
228,06VA,,Mount Horeb Field,Grottoes,Virginia,US,1160,38.24900055,-78.8553009,America/New_York,2020-08-18 12:04:00,2020-08-18 12:04:00
229,06WI,,Young Private Airport,Frederic,Wisconsin,US,1075,45.66270065,-92.45020294,America/Chicago,2020-08-18 12:04:00,2020-08-18 12:04:00
230,06WN,,Western Airpark,Yelm,Washington,US,394,46.92499924,-122.5530014,America/Los_Angeles,2020-08-18 12:04:00,2020-08-18 12:04:00
231,06XS,,Campbell Field,Aubrey,Texas,US,546,33.3246994,-97.04419708,America/Chicago,2020-08-18 12:04:00,2020-08-18 12:04:00
232,07AR,,Morrilton Airport,Morrilton,Arkansas,US,300,35.19449997,-92.80020142,America/Chicago,2020-08-18 12:04:00,2020-08-18 12:04:00
233,07CL,,Richvale Airport,Richvale,California,US,100,39.49769974,-121.7710037,America/Los_Angeles,2020-08-18 12:04:00,2020-08-18 12:04:00
234,07CO,,Comanche Creek Airport,Kiowa,Colorado,US,6620,39.2635994,-104.427002,America/Denver,2020-08-18 12:04:00,2020-08-18 12:04:00
235,07FA,,Ocean Reef Club Airport,Key Largo,Florida,US,8,25.3253994,-80.27480316,America/New_York,2020-08-18 12:04:00,2020-08-18 12:04:00
236,07FD,,Flying G Ranch STOLport,Lee,Florida,US,90,30.41799927,-83.28379822,America/New_York,2020-08-18 12:04:00,2020-08-18 12:04:00
237,07GA,,Alcovy Airport,Covington,Georgia,US,750,33.67499924,-83.76309967,America/New_York,2020-08-18 12:04:00,2020-08-18 12:04:00
238,07ID,,Interstate Airport,Malta,Idaho,US,4580,42.27819824,-113.3050003,America/Boise,2020-08-18 12:04:00,2020-08-18 12:04:00
239,07IN,,Gray Airport,Boggstown,Indiana,US,750,39.57369995,-85.91390228,America/Indiana/Indianapolis,2020-08-18 12:04:00,2020-08-18 12:04:00
240,07KS,,Heape Field,Augusta,Kansas,US,1321,37.73419952,-96.93669891,America/Chicago,2020-08-18 12:04:00,2020-08-18 12:04:00
241,07KY,,Blue Lick Airport,Louisville,Kentucky,US,532,38.08060074,-85.69329834,America/New_York,2020-08-18 12:04:00,2020-08-18 12:04:00
242,07MD,,Baugher's Orchard Airport,Westminster,Maryland,US,700,39.60829926,-77.05190277,America/New_York,2020-08-18 12:04:00,2020-08-18 12:04:00
243,07MI,,Scott Airstrip,Lake,Michigan,US,1065,43.86420059,-85.02390289,America/Detroit,2020-08-18 12:04:00,2020-08-18 12:04:00
244,07MN,,Dairyview Airport,Hadley,Minnesota,US,1680,44.05500031,-95.90950012,America/Chicago,2020-08-18 12:04:00,2020-08-18 12:04:00
245,07MO,,Lake Sexton Airport,Warrensburg,Missouri,US,880,38.65000153,-93.61689758,America/Chicago,2020-08-18 12:04:00,2020-08-18 12:04:00
246,07MT,,Glasgow Industrial Airport,Glasgow,Montana,US,2762,48.42110062,-106.5279999,America/Denver,2020-08-18 12:04:00,2020-08-18 12:04:00
247,07NC,,Hawks Meadow Airport,Waxhaw,North Carolina,US,625,34.83319855,-80.75119781,America/New_York,2020-08-18 12:04:00,2020-08-18 12:04:00
248,07OK,,Pleasant Valley Airport,Snyder,Oklahoma,US,1322,34.63339996,-99.03369904,America/Chicago,2020-08-18 12:04:00,2020-08-18 12:04:00
249,07OR,,Bruce's Airport,Milwaukie,Oregon,US,250,45.42179871,-122.6200027,America/Los_Angeles,2020-08-18 12:04:00,2020-08-18 12:04:00
250,07PN,,Folmar Airport,Grassflat,Pennsylvania,US,1690,40.998889,-78.125278,America/New_York,2020-08-18 12:04:00,2020-08-18 12:04:00
251,07SN,,Churchill Airport,Phillipsburg,Kansas,US,1965,39.77280045,-99.36009979,America/Chicago,2020-08-18 12:04:00,2020-08-18 12:04:00
252,07TA,,Salaika Aviation Airport,Danbury,Texas,US,30,29.2404995,-95.34470367,America/Chicago,2020-08-18 12:04:00,2020-08-18 12:04:00
253,07TE,,Cuddihy Field,Corpus Christi,Texas,US,39,27.72109985,-97.51280212,America/Chicago,2020-08-18 12:04:00,2020-08-18 12:04:00
254,07TN,,Corntassel Airport,Vonore,Tennessee,US,970,35.5685997,-84.2410965,America/New_York,2020-08-18 12:04:00,2020-08-18 12:04:00
255,07TS,,Cross-Country Estates Airport,Georgetown,Texas,US,690,30.625,-97.57279968,America/Chicago,2020-08-18 12:04:00,2020-08-18 12:04:00
256,07VA,,Alpha Hotel Airport,Clover,Virginia,US,350,36.81959915,-78.78309631,America/New_York,2020-08-18 12:04:00,2020-08-18 12:04:00
257,07VT,,Meadow STOLport,Jericho,Vermont,US,801,44.44720078,-72.91470337,America/New_York,2020-08-18 12:04:00,2020-08-18 12:04:00
258,07WI,,Bartell Strip,Genessee Depot,Wisconsin,US,990,42.96530151,-88.39150238,America/Chicago,2020-08-18 12:04:00,2020-08-18 12:04:00
259,08AK,,Fisher Airport,Big Lake,Alaska,US,200,61.569639,-149.724439,America/Anchorage,2020-08-18 12:04:00,2020-08-18 12:04:00
260,08CL,,Kistler Ranch Airport,Jamestown,California,US,1025,37.85960007,-120.5540009,America/Los_Angeles,2020-08-18 12:04:00,2020-08-18 12:04:00
261,08CO,,Terra Firma Airport,Rush,Colorado,US,5600,38.73249817,-104.0410004,America/Denver,2020-08-18 12:04:00,2020-08-18 12:04:00
262,08FA,,Duda Airstrip,La Belle,Florida,US,35,26.57979965,-81.48370361,America/New_York,2020-08-18 12:04:00,2020-08-18 12:04:00
263,08FD,,Sunniland Ranch Airport,Okeechobee,Florida,US,65,27.36310005,-80.77279663,America/New_York,2020-08-18 12:04:00,2020-08-18 12:04:00
264,08FL,,J. H. Hendrie Farms Airport,Lake Placid,Florida,US,103,27.08449936,-81.3286972,America/New_York,2020-08-18 12:04:00,2020-08-18 12:04:00
265,08GA,,Sapelo Island Airport,Darien,Georgia,US,12,31.42580032,-81.2858963,America/New_York,2020-08-18 12:04:00,2020-08-18 12:04:00
266,08ID,,Symms Airport,Marsing,Idaho,US,2680,43.56930161,-116.7770004,America/Boise,2020-08-18 12:04:00,2020-08-18 12:04:00
267,08IL,,Harms Airstrip,Tampico,Illinois,US,643,41.57699966,-89.79399872,America/Chicago,2020-08-18 12:04:00,2020-08-18 12:04:00
268,08IS,,Hemmer RLA Restricted Landing Area,Du Quoin,Illinois,US,400,37.97779846,-89.20290375,America/Chicago,2020-08-18 12:04:00,2020-08-18 12:04:00
269,08KS,,Alderson Airport,Bennington,Kansas,US,1250,39.03469849,-97.58000183,America/Chicago,2020-08-18 12:04:00,2020-08-18 12:04:00
270,08KY,,Boss Airport,Burnside,Kentucky,US,820,36.97259903,-84.62609863,America/New_York,2020-08-18 12:04:00,2020-08-18 12:04:00
271,08LL,,Sauer Airport,Dwight,Illinois,US,665,41.07529831,-88.48919678,America/Chicago,2020-08-18 12:04:00,2020-08-18 12:04:00
272,08LS,,Aeleron Airport,Grand Coteau,Louisiana,US,51,30.40360069,-92.02359772,America/Chicago,2020-08-18 12:04:00,2020-08-18 12:04:00
273,08MA,,Wormid Airport,Southborough,Massachusetts,US,360,42.29399872,-71.49620056,America/New_York,2020-08-18 12:04:00,2020-08-18 12:04:00
274,08ME,,Lindbergh Airport,Avon,Maine,US,554,44.81420136,-70.34529877,America/New_York,2020-08-18 12:04:00,2020-08-18 12:04:00
275,08MO,,Twin Oaks Airport,Jasper,Missouri,US,955,37.39559937,-94.28379822,America/Chicago,2020-08-18 12:04:00,2020-08-18 12:04:00
276,08MS,,Williams Field,Coldwater,Mississippi,US,345,34.66220093,-89.86830139,America/Chicago,2020-08-18 12:04:00,2020-08-18 12:04:00
277,08MT,,Clark Airport,Grassrange,Montana,US,3450,47.06389999,-108.8170013,America/Denver,2020-08-18 12:04:00,2020-08-18 12:04:00
278,08NC,,Whiteheart Farm Airport,Lewisville,North Carolina,US,750,36.06760025,-80.46559906,America/New_York,2020-08-18 12:04:00,2020-08-18 12:04:00
279,08ND,,Brecht Strip,Golden Valley,North Dakota,US,1990,47.32310104,-102.0979996,America/North_Dakota/Beulah,2020-08-18 12:04:00,2020-08-18 12:04:00
280,08NE,,Laurel Municipal Airport,Laurel,Nebraska,US,1467,42.43170166,-97.07949829,America/Chicago,2020-08-18 12:04:00,2020-08-18 12:04:00
281,08NY,,Md1 Airport,Middletown,New York,US,650,41.36809921,-74.50559998,America/New_York,2020-08-18 12:04:00,2020-08-18 12:04:00
282,08OH,,Kenley Airport,Hartford,Ohio,US,1230,41.29169846,-80.56369781,America/New_York,2020-08-18 12:04:00,2020-08-18 12:04:00
283,08OK,,Parks Airport,Wilburton,Oklahoma,US,635,34.93149948,-95.25830078,America/Chicago,2020-08-18 12:04:00,2020-08-18 12:04:00
284,08OR,,Saxon Sycan Airport,Silver Lake,Oregon,US,4990,42.83929825,-121.1169968,America/Los_Angeles,2020-08-18 12:04:00,2020-08-18 12:04:00
285,08TE,,B. J. Mc Combs Sisterdale Airport,Comfort,Texas,US,1447,29.97599983,-98.74359894,America/Chicago,2020-08-18 12:04:00,2020-08-18 12:04:00
286,08TS,,Puesta Del Sol Airport,La Gloria,Texas,US,420,26.88780022,-98.50720215,America/Chicago,2020-08-18 12:04:00,2020-08-18 12:04:00
287,08TX,,Cross Wind Airport,Weatherford,Texas,US,1040,32.85820007,-97.74749756,America/Chicago,2020-08-18 12:04:00,2020-08-18 12:04:00
288,08VA,,Springwood Airstrip,Buchanan,Virginia,US,1000,37.55400085,-79.74980164,America/New_York,2020-08-18 12:04:00,2020-08-18 12:04:00
289,08XS,,Peterson Airport,Old Ocean,Texas,US,45,29.10810089,-95.77749634,America/Chicago,2020-08-18 12:04:00,2020-08-18 12:04:00
290,09AK,,West Beaver Airport,Big Lake,Alaska,US,228,61.589361,-149.847333,America/Anchorage,2020-08-18 12:04:00,2020-08-18 12:04:00
291,09AZ,,Stronghold Airport,St David,Arizona,US,4970,31.9253006,-110.038002,America/Phoenix,2020-08-18 12:04:00,2020-08-18 12:04:00
292,09CL,,Alta Sierra Airport,Grass Valley,California,US,2275,39.11380005,-121.0569992,America/Los_Angeles,2020-08-18 12:04:00,2020-08-18 12:04:00
293,09CO,,Cottonwood Field,Swink,Colorado,US,4180,38.05559921,-103.6529999,America/Denver,2020-08-18 12:04:00,2020-08-18 12:04:00
294,09FA,,Placid Lakes Airport,Lake Placid,Florida,US,130,27.24559975,-81.4131012,America/New_York,2020-08-18 12:04:00,2020-08-18 12:04:00
295,09FD,,Cheryl-Lane Landings Airport,Bushnell,Florida,US,71,28.67110062,-82.08730316,America/New_York,2020-08-18 12:04:00,2020-08-18 12:04:00
296,09FL,,Sunnybreeze Airport,Arcadia,Florida,US,60,27.05559921,-81.97059631,America/New_York,2020-08-18 12:04:00,2020-08-18 12:04:00
297,09GA,,Sunbelt Strip,Moultrie,Georgia,US,230,31.11129951,-83.68409729,America/New_York,2020-08-18 12:04:00,2020-08-18 12:04:00
298,09IA,,Skydive Iowa Airport,Brooklyn,Iowa,US,820,41.74580002,-92.40930176,America/Chicago,2020-08-18 12:04:00,2020-08-18 12:04:00
299,09ID,,Taylor Ranch Landing Area Airport,Moscow,Idaho,US,3835,45.10390091,-114.8550034,America/Boise,2020-08-18 12:04:00,2020-08-18 12:04:00
300,09II,,Gibbons Field,Valeene,Indiana,US,880,38.44729996,-86.44499969,America/Indiana/Indianapolis,2020-08-18 12:04:00,2020-08-18 12:04:00
301,09IN,,Gordon Airport,Columbia City,Indiana,US,850,41.1208992,-85.42500305,America/Indiana/Indianapolis,2020-08-18 12:04:00,2020-08-18 12:04:00
302,09KS,,Coffman Airport,Wellsville,Kansas,US,970,38.70700073,-95.13829803,America/Chicago,2020-08-18 12:04:00,2020-08-18 12:04:00
303,09LL,,Pine Hill Airport,Capron,Illinois,US,1000,42.4681015,-88.74320221,America/Chicago,2020-08-18 12:04:00,2020-08-18 12:04:00
304,09MA,,Kallander Field,Southborough,Massachusetts,US,403,42.3042984,-71.50589752,America/New_York,2020-08-18 12:04:00,2020-08-18 12:04:00
305,09ME,,Perrotti Skyranch Airfield,Berwick,Maine,US,260,43.34080124,-70.85469818,America/New_York,2020-08-18 12:04:00,2020-08-18 12:04:00
306,09MN,,W Johnson Field,Hazel Run,Minnesota,US,1060,44.77999878,-95.66359711,America/Chicago,2020-08-18 12:04:00,2020-08-18 12:04:00
307,09MO,,Hogue Farm Airport,Willard,Missouri,US,1210,37.3783989,-93.36329651,America/Chicago,2020-08-18 12:04:00,2020-08-18 12:04:00
308,09NC,,William Irving Lewis Airport,Broadway,North Carolina,US,310,35.32929993,-79.02999878,America/New_York,2020-08-18 12:04:00,2020-08-18 12:04:00
309,09NE,,Summer Hill Farm Airport,Bennington,Nebraska,US,1250,41.33330154,-96.19360352,America/Chicago,2020-08-18 12:04:00,2020-08-18 12:04:00
310,09OK,,Ragtime Aerodrome,Collinsville,Oklahoma,US,700,36.35449982,-95.86389923,America/Chicago,2020-08-18 12:04:00,2020-08-18 12:04:00
311,09PA,,Eagle Field,Port Matilda,Pennsylvania,US,1780,40.82699966,-77.98809814,America/New_York,2020-08-18 12:04:00,2020-08-18 12:04:00
312,09TA,,Lazy G Bar Ranch Airport,Decatur,Texas,US,923,33.28210068,-97.49700165,America/Chicago,2020-08-18 12:04:00,2020-08-18 12:04:00
313,09TE,,Running M Ranch Airport,Glen Rose,Texas,US,787,32.26679993,-97.86699677,America/Chicago,2020-08-18 12:04:00,2020-08-18 12:04:00
314,09TS,,Pitcock Rosillos Mountain Ranch Airport,Marathon,Texas,US,3100,29.48240089,-103.1650009,America/Chicago,2020-08-18 12:04:00,2020-08-18 12:04:00
315,09TX,,Smokey Mtn Ranch Airport,Sheffield,Texas,US,2522,30.7390995,-102.0240021,America/Chicago,2020-08-18 12:04:00,2020-08-18 12:04:00
316,09VA,,Alum Ridge STOLport,Floyd,Virginia,US,2375,36.97650146,-80.49389648,America/New_York,2020-08-18 12:04:00,2020-08-18 12:04:00
317,09WI,,Parkway Farm Strip,Holmen,Wisconsin,US,705,44.00360107,-91.30760193,America/Chicago,2020-08-18 12:04:00,2020-08-18 12:04:00
318,0AK0,,Scotts Airport,North Pole,Alaska,US,800,64.39250183,-146.8619995,America/Anchorage,2020-08-18 12:04:00,2020-08-18 12:04:00
319,0AK1,,Anderson Lake Airport,Wasilla,Alaska,US,463,61.6169014,-149.3220062,America/Anchorage,2020-08-18 12:04:00,2020-08-18 12:04:00
320,0AK2,,Yentna Bend Strip,Willow,Alaska,US,81,61.725556,-150.678611,America/Anchorage,2020-08-18 12:04:00,2020-08-18 12:04:00
321,0AK3,,Parker Lake Airport,Montana Creek,Alaska,US,250,62.03590012,-150.4940033,America/Anchorage,2020-08-18 12:04:00,2020-08-18 12:04:00
322,0AK5,,Young Creek Airport,May Creek,Alaska,US,1580,61.35649872,-142.7330017,America/Anchorage,2020-08-18 12:04:00,2020-08-18 12:04:00
323,0AK6,,Victory Airport,Victory Bible Camp,Alaska,US,1800,61.80339813,-147.9440002,America/Anchorage,2020-08-18 12:04:00,2020-08-18 12:04:00
324,0AK7,,Bradley Lake Hydroelectri Project Airstrip,Homer,Alaska,US,18,59.77610016,-150.9589996,America/Anchorage,2020-08-18 12:04:00,2020-08-18 12:04:00
325,0AK9,,Falcon Lake Strip,Point Mackenzie,Alaska,US,110,61.33259964,-150.0590057,America/Anchorage,2020-08-18 12:04:00,2020-08-18 12:04:00
326,0AL1,,Resort Airport,Foley,Alabama,US,97,30.44389915,-87.6568985,America/Chicago,2020-08-18 12:04:00,2020-08-18 12:04:00
327,0AL5,,Flomaton Airport,Flomaton,Alabama,US,247,31.03219986,-87.25279999,America/Chicago,2020-08-18 12:04:00,2020-08-18 12:04:00
328,0AL9,,Wilson Creek Airport,Florence,Alabama,US,590,34.84999847,-87.63249969,America/Chicago,2020-08-18 12:04:00,2020-08-18 12:04:00
329,0AR1,,Hooterville South Airport,Centerville,Arkansas,US,370,35.09469986,-93.20200348,America/Chicago,2020-08-18 12:04:00,2020-08-18 12:04:00
330,0AR2,,Mission Field-Marotti Memorial Airport,Crawfordsville,Arkansas,US,217,35.26679993,-90.35009766,America/Chicago,2020-08-18 12:04:00,2020-08-18 12:04:00
331,0AR3,,Taylor's Air Strip,Deer,Arkansas,US,2160,35.89899826,-93.26100159,America/Chicago,2020-08-18 12:04:00,2020-08-18 12:04:00
332,0AR7,,Yancopin Airport,Watson,Arkansas,US,150,33.95009995,-91.18119812,America/Chicago,2020-08-18 12:04:00,2020-08-18 12:04:00
333,0AZ1,,Taylor Field,Marana,Arizona,US,2130,32.30089951,-111.3239975,America/Phoenix,2020-08-18 12:04:00,2020-08-18 12:04:00
334,0AZ2,,Western Sky Airport,Salome,Arizona,US,1930,33.77809906,-113.6419983,America/Phoenix,2020-08-18 12:04:00,2020-08-18 12:04:00
335,0AZ4,,Flying Bucket Ranch Airport,Mobile,Arizona,US,1505,32.9822998,-112.2870026,America/Phoenix,2020-08-18 12:04:00,2020-08-18 12:04:00
336,0AZ5,,Castle Well Airport,Morristown,Arizona,US,2080,33.86589813,-112.6029968,America/Phoenix,2020-08-18 12:04:00,2020-08-18 12:04:00
337,0CA1,,Northside Airpark,Santa Maria,California,US,190,34.98830032,-120.4580002,America/Los_Angeles,2020-08-18 12:04:00,2020-08-18 12:04:00
338,0CA3,,Crawford Airport,Santa Ynez,California,US,570,34.58750153,-120.0130005,America/Los_Angeles,2020-08-18 12:04:00,2020-08-18 12:04:00
339,0CA4,,Shepherd Ranch Airport,Santa Ynez,California,US,660,34.62220001,-120.0650024,America/Los_Angeles,2020-08-18 12:04:00,2020-08-18 12:04:00
340,0CA5,,Hoffman Private Airport,Santa Ysabel,California,US,3100,33.14310074,-116.7450027,America/Los_Angeles,2020-08-18 12:04:00,2020-08-18 12:04:00
341,0CA6,,Emory Ranch Airport,Ocotillo,California,US,480,32.7494444,-116.0161111,America/Los_Angeles,2020-08-18 12:04:00,2020-08-18 12:04:00
342,0CA8,,Ward Ranch Airport,Aguanga,California,US,2500,33.42779922,-116.8430023,America/Los_Angeles,2020-08-18 12:04:00,2020-08-18 12:04:00
343,0CA9,,Blech Ranch Airport,Shandon,California,US,1140,35.59500122,-120.3389969,America/Los_Angeles,2020-08-18 12:04:00,2020-08-18 12:04:00
344,0CD2,,Foxx Valley Airport,Yoder,Colorado,US,5800,38.65250015,-104.2340012,America/Denver,2020-08-18 12:04:00,2020-08-18 12:04:00
345,0CD5,,Pinon Canyon Airport,Trinidad,Colorado,US,5686,37.4905014,-104.1439972,America/Denver,2020-08-18 12:04:00,2020-08-18 12:04:00
346,0CD7,,Fox Hole Airport,Lafayette,Colorado,US,5135,40.00469971,-105.0719986,America/Denver,2020-08-18 12:04:00,2020-08-18 12:04:00
347,0CL0,,Yosemite Hidden Lake Ranch Airport,Raymond,California,US,500,37.11800003,-119.913002,America/Los_Angeles,2020-08-18 12:04:00,2020-08-18 12:04:00
348,0CL1,,Krey Field Airport,Adelanto,California,US,3042,34.56940079,-117.5559998,America/Los_Angeles,2020-08-18 12:04:00,2020-08-18 12:04:00
349,0CL3,,John Nichol's Field Airport,Chula Vista,California,US,490,32.6330986,-116.8929977,America/Los_Angeles,2020-08-18 12:04:00,2020-08-18 12:04:00
350,0CL6,,Bohunk's Airpark,Lancaster,California,US,2410,34.69469833,-118.2829971,America/Los_Angeles,2020-08-18 12:04:00,2020-08-18 12:04:00
351,0CL8,,Tera Ultralightport,Ridgecrest,California,US,2510,35.59130096,-117.6340027,America/Los_Angeles,2020-08-18 12:04:00,2020-08-18 12:04:00
352,0CO1,,Dave's Airport,Louisville,Colorado,US,5170,40.03329849,-105.1240005,America/Denver,2020-08-18 12:04:00,2020-08-18 12:04:00
353,0CO2,,Buckhorn Ranch Airport,Crested Butte,Colorado,US,8980,38.85189819,-106.9329987,America/Denver,2020-08-18 12:04:00,2020-08-18 12:04:00
354,0CO3,,Greggs Nr 1 Airport,Bennett,Colorado,US,5373,39.88940048,-104.5449982,America/Denver,2020-08-18 12:04:00,2020-08-18 12:04:00
355,0CO5,,Chenoweth Airport,Last Chance,Colorado,US,4697,39.83330154,-103.5899963,America/Denver,2020-08-18 12:04:00,2020-08-18 12:04:00
356,0CO6,,Flying M & M Ranch Airport,Norwood,Colorado,US,8000,38.2193985,-108.2129974,America/Denver,2020-08-18 12:04:00,2020-08-18 12:04:00
357,0CO8,,Cartwheel Airport,Mead,Colorado,US,5010,40.20830154,-105.0130005,America/Denver,2020-08-18 12:04:00,2020-08-18 12:04:00
358,0CO9,,Van Treese Airport,Monte Vista,Colorado,US,7613,37.65829849,-106.0339966,America/Denver,2020-08-18 12:04:00,2020-08-18 12:04:00
359,0FA1,,Frierson Grove Airport,Arcadia,Florida,US,65,27.30389977,-81.88040161,America/New_York,2020-08-18 12:04:00,2020-08-18 12:04:00
360,0FD0,,Big 'G' Airport,Ormond Beach,Florida,US,40,29.26749992,-81.23010254,America/New_York,2020-08-18 12:04:00,2020-08-18 12:04:00
361,0FD3,,Dugger Field,Freeport,Florida,US,70,30.49640083,-86.09380341,America/Chicago,2020-08-18 12:04:00,2020-08-18 12:04:00
362,0FD5,,Breezy Knoll Airport,Defuniak Springs,Florida,US,235,30.82019997,-86.3443985,America/Chicago,2020-08-18 12:04:00,2020-08-18 12:04:00
363,0FD9,,Joy Farms Airport,Defuniak Springs,Florida,US,290,30.65209961,-86.10939789,America/Chicago,2020-08-18 12:04:00,2020-08-18 12:04:00
364,0FL0,,Harper's Fly-In Ranch Airport,Clewiston,Florida,US,30,26.73060036,-81.16390228,America/New_York,2020-08-18 12:04:00,2020-08-18 12:04:00
365,0FL1,,Thompson Airfield,Branford,Florida,US,110,29.98329926,-82.83560181,America/New_York,2020-08-18 12:04:00,2020-08-18 12:04:00
366,0FL6,,Stanchester Airport,Lithia,Florida,US,94,27.80590057,-82.14009857,America/New_York,2020-08-18 12:04:00,2020-08-18 12:04:00
367,0FL9,,Mc Daniel Ranch Inc. Airport,Clewiston,Florida,US,18,26.39389992,-81.02310181,America/New_York,2020-08-18 12:04:00,2020-08-18 12:04:00
368,0GA0,,Halls Flying Ranch Airport,Hampton,Georgia,US,800,33.35620117,-84.36710358,America/New_York,2020-08-18 12:04:00,2020-08-18 12:04:00
369,0GA1,,Mustang Field,Hartwell,Georgia,US,693,34.47790146,-82.89710236,America/New_York,2020-08-18 12:04:00,2020-08-18 12:04:00
370,0GA2,,Airnautique Inc. Airport,Hartwell,Georgia,US,720,34.37789917,-82.9457016,America/New_York,2020-08-18 12:04:00,2020-08-18 12:04:00
371,0GA3,,Ayresouth Airport,Temple,Georgia,US,1287,33.77009964,-85.06079865,America/New_York,2020-08-18 12:04:00,2020-08-18 12:04:00
372,0GA4,,Paradise Falls Airport,High Shoals,Georgia,US,736,33.81290054,-83.50569916,America/New_York,2020-08-18 12:04:00,2020-08-18 12:04:00
373,0GA6,,Sunset Strip,Jersey,Georgia,US,780,33.73339844,-83.81880188,America/New_York,2020-08-18 12:04:00,2020-08-18 12:04:00
374,0GA7,,Hickory Level Airfield,Temple,Georgia,US,1080,33.6833992,-84.99990082,America/New_York,2020-08-18 12:04:00,2020-08-18 12:04:00
375,0GA8,,Paso Fino Farm Airport,Valdosta,Georgia,US,200,30.88710022,-83.41600037,America/New_York,2020-08-18 12:04:00,2020-08-18 12:04:00
376,0GA9,,Roberta Industrial Park Airport,Roberta,Georgia,US,505,32.71390152,-84.02749634,America/New_York,2020-08-18 12:04:00,2020-08-18 12:04:00
377,0GE0,,Pinewood Airport,Douglasville,Georgia,US,1085,33.78210068,-84.80079651,America/New_York,2020-08-18 12:04:00,2020-08-18 12:04:00
378,0GE1,,Crystal Lake Airpark,Irwinville,Georgia,US,327,31.66550064,-83.44709778,America/New_York,2020-08-18 12:04:00,2020-08-18 12:04:00
379,0GE3,,Lookout Mountain Airport,Trenton,Georgia,US,563,34.90470123,-85.45970154,America/New_York,2020-08-18 12:04:00,2020-08-18 12:04:00
380,0GE4,,Pecan Patch Airstrip,Sunnyside,Georgia,US,860,33.33140183,-84.26670074,America/New_York,2020-08-18 12:04:00,2020-08-18 12:04:00
381,0GE5,,Mountain Airpark,Cleveland,Georgia,US,1438,34.5617981,-83.71350098,America/New_York,2020-08-18 12:04:00,2020-08-18 12:04:00
382,0GE7,,Carpenter Airport,Appling,Georgia,US,450,33.52030182,-82.37249756,America/New_York,2020-08-18 12:04:00,2020-08-18 12:04:00
383,0GE9,,Pegasus Ranch Airport,Rocky Ford,Georgia,US,230,32.69390106,-81.79859924,America/New_York,2020-08-18 12:04:00,2020-08-18 12:04:00
384,0IA3,,Hawkeye Airport,Waterloo,Iowa,US,883,42.43470001,-92.32800293,America/Chicago,2020-08-18 12:04:00,2020-08-18 12:04:00
385,0IA4,,Sharar Field,Mediapolis,Iowa,US,700,41.03340149,-91.05010223,America/Chicago,2020-08-18 12:04:00,2020-08-18 12:04:00
386,0IA5,,Moore Private Airport,Millerton,Iowa,US,1060,40.87220001,-93.26270294,America/Chicago,2020-08-18 12:04:00,2020-08-18 12:04:00
387,0IA6,,Rinehart Airport,Victor,Iowa,US,920,41.65969849,-92.28990173,America/Chicago,2020-08-18 12:04:00,2020-08-18 12:04:00
388,0IA8,,Hannen Airport,Center Point,Iowa,US,925,42.22800064,-91.75099945,America/Chicago,2020-08-18 12:04:00,2020-08-18 12:04:00
389,0ID0,,South Fork Ranch Airport,Featherville,Idaho,US,4861,43.60639954,-115.1070023,America/Boise,2020-08-18 12:04:00,2020-08-18 12:04:00
390,0ID1,,Ziggy's Airport,Filer,Idaho,US,3225,42.64120102,-114.6050034,America/Boise,2020-08-18 12:04:00,2020-08-18 12:04:00
391,0ID2,,Flying Joseph Ranch Airport,May,Idaho,US,5600,44.44290161,-113.7730026,America/Boise,2020-08-18 12:04:00,2020-08-18 12:04:00
392,0ID3,,Coyote Run Airport,Mountain Home,Idaho,US,3150,43.07580185,-115.6729965,America/Boise,2020-08-18 12:04:00,2020-08-18 12:04:00
393,0ID4,,Black Butte Ranch Airport,Shoshone,Idaho,US,4020,43.04769897,-114.4700012,America/Boise,2020-08-18 12:04:00,2020-08-18 12:04:00
394,0ID5,,Ez Lope Ranch Airport,Oreana,Idaho,US,3130,43.05310059,-116.461998,America/Boise,2020-08-18 12:04:00,2020-08-18 12:04:00
395,0ID7,,Z X Ranch Airport,Murphy,Idaho,US,3820,43.230308,-116.763192,America/Boise,2020-08-18 12:04:00,2020-08-18 12:04:00
396,0ID8,,Pinnacle Airport,Grangeville,Idaho,US,3800,45.775197,-116.178475,America/Los_Angeles,2020-08-18 12:04:00,2020-08-18 12:04:00
397,0II0,,Chuck's Airport,Albany,Indiana,US,955,40.25999832,-85.25330353,America/Indiana/Indianapolis,2020-08-18 12:04:00,2020-08-18 12:04:00
398,0II1,,Unsicker Airport,Bremen,Indiana,US,816,40.42810059,-86.15329742,America/Indiana/Indianapolis,2020-08-18 12:04:00,2020-08-18 12:04:00
399,0II2,,Creighton Airport,Bremen,Indiana,US,820,41.45729828,-86.12439728,America/Indiana/Indianapolis,2020-08-18 12:04:00,2020-08-18 12:04:00
400,0II3,,Miller Strip,Bunker Hill,Indiana,US,810,40.62779999,-86.03780365,America/Indiana/Indianapolis,2020-08-18 12:04:00,2020-08-18 12:04:00
401,0II5,,Marshall Field,Chalmers,Indiana,US,705,40.65950012,-86.85720062,America/Indiana/Indianapolis,2020-08-18 12:04:00,2020-08-18 12:04:00
402,0II6,,Kropf Airport,Goshen,Indiana,US,810,41.64310074,-85.82969666,America/Indiana/Indianapolis,2020-08-18 12:04:00,2020-08-18 12:04:00
403,0II7,,Frost Field,Greenfield,Indiana,US,900,39.79560089,-85.78610229,America/Indiana/Indianapolis,2020-08-18 12:04:00,2020-08-18 12:04:00
404,0II8,,Sutton's Field,Lowell,Indiana,US,740,41.32479858,-87.47589874,America/Chicago,2020-08-18 12:04:00,2020-08-18 12:04:00
405,0II9,,Winters Airport,Hall,Indiana,US,755,39.53419876,-86.57720184,America/Indiana/Indianapolis,2020-08-18 12:04:00,2020-08-18 12:04:00
406,0IL2,,Griffin Airport,Alma,Illinois,US,541,38.803056,-88.997778,America/Chicago,2020-08-18 12:04:00,2020-08-18 12:04:00
407,0IL3,,Flying B Ranch Airport,Danville,Illinois,US,696,40.1570015,-87.67449951,America/Chicago,2020-08-18 12:04:00,2020-08-18 12:04:00
408,0IL8,,Walter Airport,De Kalb,Illinois,US,890,41.87250137,-88.72370148,America/Chicago,2020-08-18 12:04:00,2020-08-18 12:04:00
409,0IL9,,Jack W. Watson Airport,De Kalb,Illinois,US,880,41.85480118,-88.78730011,America/Chicago,2020-08-18 12:04:00,2020-08-18 12:04:00
410,0IN1,,Snider Field,Decker,Indiana,US,400,38.5,-87.59590149,America/Indiana/Vincennes,2020-08-18 12:04:00,2020-08-18 12:04:00
411,0IN2,,The Lazy K Airport,Tocsin,Indiana,US,835,40.82780075,-85.08609772,America/Indiana/Indianapolis,2020-08-18 12:04:00,2020-08-18 12:04:00
412,0IN3,,Graves Landing Strip,Winamac,Indiana,US,704,41.11669922,-86.66670227,America/Indiana/Winamac,2020-08-18 12:04:00,2020-08-18 12:04:00
413,0IN4,,Air Park Field,Woodburn,Indiana,US,750,41.12779999,-84.94719696,America/Indiana/Indianapolis,2020-08-18 12:04:00,2020-08-18 12:04:00
414,0IN5,,Byrne Field,Byrneville,Indiana,US,800,38.32899857,-86.03359985,America/Kentucky/Louisville,2020-08-18 12:04:00,2020-08-18 12:04:00
415,0IN9,,Parrish Airport,Mount Vernon,Indiana,US,390,37.99309921,-87.95140076,America/Chicago,2020-08-18 12:04:00,2020-08-18 12:04:00
416,0IS3,,Cady Aerial RLA Restricted Landing Area,Deer Grove,Illinois,US,630,41.66080093,-89.69360352,America/Chicago,2020-08-18 12:04:00,2020-08-18 12:04:00
417,0IS4,,Dawson Farms Airport,Lovington,Illinois,US,670,39.76250076,-88.67150116,America/Chicago,2020-08-18 12:04:00,2020-08-18 12:04:00
418,0KS0,,J V Ranch Airport,Osage City,Kansas,US,1180,38.63330078,-95.9253006,America/Chicago,2020-08-18 12:04:00,2020-08-18 12:04:00
419,0KS2,,Kellie Mann Airfield,Ottawa,Kansas,US,1045,38.56000137,-95.30909729,America/Chicago,2020-08-18 12:04:00,2020-08-18 12:04:00
420,0KS3,,Camp Chippewa Airport,Ottawa,Kansas,US,1120,38.56669998,-95.36689758,America/Chicago,2020-08-18 12:04:00,2020-08-18 12:04:00
421,0KS4,,Norris Airport,Lawrence,Kansas,US,1065,38.807239,-95.370056,America/Chicago,2020-08-18 12:04:00,2020-08-18 12:04:00
422,0KS6,,Kendrigan Airport,Peck,Kansas,US,1240,37.45220184,-97.31780243,America/Chicago,2020-08-18 12:04:00,2020-08-18 12:04:00
423,0KS7,,Mono Aircraft Airport,Cheney,Kansas,US,1450,37.69279861,-97.88639832,America/Chicago,2020-08-18 12:04:00,2020-08-18 12:04:00
424,0KS8,,Pearce Field,Parsons,Kansas,US,950,37.38249969,-95.37470245,America/Chicago,2020-08-18 12:04:00,2020-08-18 12:04:00
425,0KS9,,Lmn 120 Airport,Douglas,Kansas,US,1330,37.51589966,-96.9197998,America/Chicago,2020-08-18 12:04:00,2020-08-18 12:04:00
426,0KY0,,Owen Air Park,Owenton,Kentucky,US,890,38.62279892,-84.77890015,America/New_York,2020-08-18 12:04:00,2020-08-18 12:04:00
427,0KY1,,Arnemann Farms Airport,Franklin,Kentucky,US,504,36.7655983,-86.61830139,America/Chicago,2020-08-18 12:04:00,2020-08-18 12:04:00
428,0KY4,,Cambron Field,Owensboro,Kentucky,US,427,37.56439972,-87.08190155,America/Chicago,2020-08-18 12:04:00,2020-08-18 12:04:00
429,0KY5,,Falin Landing Strip,Bowling Green,Kentucky,US,600,36.8125,-86.375,America/Chicago,2020-08-18 12:04:00,2020-08-18 12:04:00
430,0KY7,,Clinton-Hickman County Airport,Clinton,Kentucky,US,360,36.63610077,-88.99859619,America/Chicago,2020-08-18 12:04:00,2020-08-18 12:04:00
431,0KY8,,Sky Airport,Manchester,Kentucky,US,850,37.11719894,-83.73609924,America/New_York,2020-08-18 12:04:00,2020-08-18 12:04:00
432,0LA1,,Double H Ranch Airport,Gonzales,Louisiana,US,15,30.22940063,-90.9733963,America/Chicago,2020-08-18 12:04:00,2020-08-18 12:04:00
433,0LA2,,Don Babin-Private Airport,Gonzales,Louisiana,US,17,30.27799988,-90.96320343,America/Chicago,2020-08-18 12:04:00,2020-08-18 12:04:00
434,0LA3,,Belcher Airpatch Airport,Belcher,Louisiana,US,280,32.7492981,-93.87349701,America/Chicago,2020-08-18 12:04:00,2020-08-18 12:04:00
435,0LA9,,Rebel Field,Watson,Louisiana,US,74,30.5862999,-90.8615036,America/Chicago,2020-08-18 12:04:00,2020-08-18 12:04:00
436,0LL0,,Kaufield Airport,Belvidere,Illinois,US,783,42.26470184,-88.73000336,America/Chicago,2020-08-18 12:04:00,2020-08-18 12:04:00
437,0LL1,,Jerseyville Aviation Inc Airport,Jerseyville,Illinois,US,604,39.09420013,-90.31340027,America/Chicago,2020-08-18 12:04:00,2020-08-18 12:04:00
438,0LL2,,Murk's Strip,St. Augustine,Illinois,US,700,40.73889923,-90.38069916,America/Chicago,2020-08-18 12:04:00,2020-08-18 12:04:00
439,0LL3,,Koenig Airport,Jerseyville,Illinois,US,614,39.05500031,-90.34210205,America/Chicago,2020-08-18 12:04:00,2020-08-18 12:04:00
440,0LL4,,Flaherty Field,La Salle,Illinois,US,664,41.4192009,-89.12310028,America/Chicago,2020-08-18 12:04:00,2020-08-18 12:04:00
441,0LL5,,Busboom RLA Restricted Landing Area,St Joseph,Illinois,US,675,40.11000061,-88.07839966,America/Chicago,2020-08-18 12:04:00,2020-08-18 12:04:00
442,0LL6,,Gord Airport,Sandwich,Illinois,US,710,41.69839859,-88.60759735,America/Chicago,2020-08-18 12:04:00,2020-08-18 12:04:00
443,0LS0,,Theriot Field,Thibodaux,Louisiana,US,13,29.74970055,-90.7358017,America/Chicago,2020-08-18 12:04:00,2020-08-18 12:04:00
444,0LS4,,Buller's Airstrip,Bunkie,Louisiana,US,47,30.80870056,-92.18800354,America/Chicago,2020-08-18 12:04:00,2020-08-18 12:04:00
445,0LS5,,Trahan Ultralightport,Cankton,Louisiana,US,40,30.30690002,-92.12979889,America/Chicago,2020-08-18 12:04:00,2020-08-18 12:04:00
446,0LS6,,Dufour Airport,Morrow,Louisiana,US,42,30.78770065,-92.05039978,America/Chicago,2020-08-18 12:04:00,2020-08-18 12:04:00
447,0LS7,,Morgan Field,New Roads,Louisiana,US,36,30.6128006,-91.48419952,America/Chicago,2020-08-18 12:04:00,2020-08-18 12:04:00
448,0LS8,,Lonesome Dove Airfield,Woodlawn,Louisiana,US,34,30.28580093,-92.94129944,America/Chicago,2020-08-18 12:04:00,2020-08-18 12:04:00
449,0LS9,,Huenefeld Airport,Monroe,Louisiana,US,72,32.50429916,-91.98210144,America/Chicago,2020-08-18 12:04:00,2020-08-18 12:04:00
450,0MD1,,Taylor Field,Sudlersville,Maryland,US,75,39.18730164,-75.79270172,America/New_York,2020-08-18 12:04:00,2020-08-18 12:04:00
451,0MD2,,Squier Landing Airport,Cobb Island,Maryland,US,16,38.28789902,-76.86750031,America/New_York,2020-08-18 12:04:00,2020-08-18 12:04:00
452,0MD4,,Pond View Private Airport,Chestertown,Maryland,US,47,39.26679993,-76.18720245,America/New_York,2020-08-18 12:04:00,2020-08-18 12:04:00
453,0MD6,,Walters Airport,Mount Airy,Maryland,US,750,39.38119888,-77.10579681,America/New_York,2020-08-18 12:04:00,2020-08-18 12:04:00
454,0ME4,,Peasley Field,Otis,Maine,US,271,44.742469,-68.474403,America/New_York,2020-08-18 12:04:00,2020-08-18 12:04:00
455,0MI1,,Sugar Springs Airport,Gladwin,Michigan,US,940,44.14030075,-84.4375,America/Detroit,2020-08-18 12:04:00,2020-08-18 12:04:00
456,0MI2,,Stier Airstrip,Glennie,Michigan,US,850,44.52220154,-83.6832962,America/Detroit,2020-08-18 12:04:00,2020-08-18 12:04:00
457,0MI3,,Kelleys Airport,Grayling,Michigan,US,1000,44.63339996,-84.48339844,America/Detroit,2020-08-18 12:04:00,2020-08-18 12:04:00
458,0MI4,,Lesterson Field,Gwinn,Michigan,US,1120,46.27019882,-87.3864975,America/Detroit,2020-08-18 12:04:00,2020-08-18 12:04:00
459,0MI6,,Young's Airport,Hulbert,Michigan,US,800,46.38750076,-85.18399811,America/Detroit,2020-08-18 12:04:00,2020-08-18 12:04:00
460,0MI8,,Twin Lakes Airport,Lewiston,Michigan,US,1275,44.90000153,-84.30000305,America/Detroit,2020-08-18 12:04:00,2020-08-18 12:04:00
461,0MN1,,Brinkman Airport,St. Peter,Minnesota,US,1020,44.26250076,-94.06970215,America/Chicago,2020-08-18 12:04:00,2020-08-18 12:04:00
462,0MN5,,Pankratz Airport,Springfield,Minnesota,US,1033,44.30720139,-94.91690063,America/Chicago,2020-08-18 12:04:00,2020-08-18 12:04:00
463,0MN6,,Matson Field,Spring Valley,Minnesota,US,1365,43.66220093,-92.40429688,America/Chicago,2020-08-18 12:04:00,2020-08-18 12:04:00
464,0MN8,,Keller Airport,Stillwater,Minnesota,US,990,45.13579941,-92.85939789,America/Chicago,2020-08-18 12:04:00,2020-08-18 12:04:00
465,0MO0,,Ferros Ranch-Aero Airport,Clinton,Missouri,US,775,38.41030121,-93.85019684,America/Chicago,2020-08-18 12:04:00,2020-08-18 12:04:00
466,0MO1,,Flying G Airport,Creighton,Missouri,US,920,38.54449844,-94.09470367,America/Chicago,2020-08-18 12:04:00,2020-08-18 12:04:00
467,0MO2,,Short-N-Ruff Airport,Caledonia,Missouri,US,950,37.7867012,-90.78009796,America/Chicago,2020-08-18 12:04:00,2020-08-18 12:04:00
468,0MO3,,Arvin Ranch Airport,Drexel,Missouri,US,1000,38.44029999,-94.59329987,America/Chicago,2020-08-18 12:04:00,2020-08-18 12:04:00
469,0MO5,,Joe D Lewis Airport,Edina,Missouri,US,780,40.13339996,-92.10019684,America/Chicago,2020-08-18 12:04:00,2020-08-18 12:04:00
470,0MO6,,Hall Airport,Edina,Missouri,US,850,40.11669922,-92.26689911,America/Chicago,2020-08-18 12:04:00,2020-08-18 12:04:00
471,0MO8,,Sloan's Airport,Elsberry,Missouri,US,437,39.1405983,-90.73680115,America/Chicago,2020-08-18 12:04:00,2020-08-18 12:04:00
472,0MS0,,Topton Air Estates Airport,Meridian,Mississippi,US,453,32.47499847,-88.61669922,America/Chicago,2020-08-18 12:04:00,2020-08-18 12:04:00
473,0MS1,,Franklin Field,Meadville,Mississippi,US,200,31.42519951,-90.9029007,America/Chicago,2020-08-18 12:04:00,2020-08-18 12:04:00
474,0MS2,,Morgan Field,Seminary,Mississippi,US,300,31.54179955,-89.39170074,America/Chicago,2020-08-18 12:04:00,2020-08-18 12:04:00
475,0MS5,,Lewis Air Service Airport,Leland,Mississippi,US,120,33.39179993,-90.91680145,America/Chicago,2020-08-18 12:04:00,2020-08-18 12:04:00
476,0MS7,,Hale Field,Pontotoc,Mississippi,US,346,34.34260178,-89.14309692,America/Chicago,2020-08-18 12:04:00,2020-08-18 12:04:00
477,0MS8,,Catfish Point Airport,Benoit,Mississippi,US,154,33.69929886,-91.1651001,America/Chicago,2020-08-18 12:04:00,2020-08-18 12:04:00
478,0MS9,,Shenandoah Valley Farms Airport,Houston,Mississippi,US,300,33.80070114,-89.02729797,America/Chicago,2020-08-18 12:04:00,2020-08-18 12:04:00
479,0MT1,,Williams Field,Augusta,Montana,US,4070,47.49750137,-112.3909988,America/Denver,2020-08-18 12:04:00,2020-08-18 12:04:00
480,0MT4,,Kimp Airport,Hamilton,Montana,US,3510,46.27859879,-114.1409988,America/Denver,2020-08-18 12:04:00,2020-08-18 12:04:00
481,0MT5,,Cottonwood Airport,Laurel,Montana,US,3350,45.63420105,-108.848999,America/Denver,2020-08-18 12:04:00,2020-08-18 12:04:00
482,0MT6,,Hanson Airport,Marion,Montana,US,3900,48.04059982,-114.6790009,America/Denver,2020-08-18 12:04:00,2020-08-18 12:04:00
483,0MT7,,Pinehurst Ranch Airport,Thompson Falls,Montana,US,2460,47.66080093,-115.4039993,America/Denver,2020-08-18 12:04:00,2020-08-18 12:04:00
484,0MT9,,Lone Hawk Airport,White Fish,Montana,US,3284,48.48329926,-114.4929962,America/Denver,2020-08-18 12:04:00,2020-08-18 12:04:00
485,0MU0,,Eagle Field,Ellington,Missouri,US,784,37.23469925,-91.09359741,America/Chicago,2020-08-18 12:04:00,2020-08-18 12:04:00
486,0MU1,,Sunderland Airport,Avilla,Missouri,US,1027,37.24670029,-94.17389679,America/Chicago,2020-08-18 12:04:00,2020-08-18 12:04:00
487,0MU4,,Slaughter Airport,Marceline,Missouri,US,800,39.61610031,-92.86689758,America/Chicago,2020-08-18 12:04:00,2020-08-18 12:04:00
488,0MU7,,Lambs Field,Lone Jack,Missouri,US,1070,38.875,-94.13970184,America/Chicago,2020-08-18 12:04:00,2020-08-18 12:04:00
489,0MU8,,Prince STOLport,Millersville,Missouri,US,582,37.43870163,-89.75900269,America/Chicago,2020-08-18 12:04:00,2020-08-18 12:04:00
490,0NA1,,Goerger Airport,Barney,North Dakota,US,1045,46.24549866,-97.03759766,America/Chicago,2020-08-18 12:04:00,2020-08-18 12:04:00
491,0NA5,,Sorlie Airport,Maddock,North Dakota,US,1580,48.00109863,-99.56289673,America/Chicago,2020-08-18 12:04:00,2020-08-18 12:04:00
492,0NA9,,Boyd's Turf Airport,Golva,North Dakota,US,2750,46.75,-103.8010025,America/Denver,2020-08-18 12:04:00,2020-08-18 12:04:00
493,0NC1,,Bearwallow Farm Airport,Hendersonville,North Carolina,US,3608,35.45709991,-82.37539673,America/New_York,2020-08-18 12:04:00,2020-08-18 12:04:00
494,0NC7,,Lindsay Airport,Madison,North Carolina,US,700,36.35720062,-79.99749756,America/New_York,2020-08-18 12:04:00,2020-08-18 12:04:00
495,0NC8,,Double Creek Ranch Airport,Cleveland,North Carolina,US,830,35.75569916,-80.73529816,America/New_York,2020-08-18 12:04:00,2020-08-18 12:04:00
496,0ND0,,Gilbertson Field,Flora,North Dakota,US,1550,47.92919922,-99.40039825,America/Chicago,2020-08-18 12:04:00,2020-08-18 12:04:00
497,0ND6,,Schumacher Strip,Hague,North Dakota,US,2020,46.05500031,-99.917099,America/Chicago,2020-08-18 12:04:00,2020-08-18 12:04:00
498,0ND7,,Saville Private Airport,Hazelton,North Dakota,US,1961,46.46530151,-100.1050034,America/Chicago,2020-08-18 12:04:00,2020-08-18 12:04:00
499,0NE0,,Merrihew Airport,Ashby,Nebraska,US,3815,41.84999847,-101.9499969,America/Denver,2020-08-18 12:04:00,2020-08-18 12:04:00
500,0NE1,,Runner Landing Area Airport,Ashby,Nebraska,US,3760,42.40719986,-101.9319992,America/Denver,2020-08-18 12:04:00,2020-08-18 12:04:00
501,0NE2,,Merry Airport,Ashby,Nebraska,US,3791,41.86660004,-101.9169998,America/Denver,2020-08-18 12:04:00,2020-08-18 12:04:00
502,0NE5,,Newman Airport,Big Springs,Nebraska,US,3525,41.02109909,-102.0179977,America/Denver,2020-08-18 12:04:00,2020-08-18 12:04:00
503,0NE6,,Frager Field,Fairfield,Nebraska,US,1765,40.43330002,-98.07060242,America/Chicago,2020-08-18 12:04:00,2020-08-18 12:04:00
504,0NJ5,,Fla-Net Airport,Netcong,New Jersey,US,1040,40.88589859,-74.70570374,America/New_York,2020-08-18 12:04:00,2020-08-18 12:04:00
505,0NJ6,,Dix Field,Linwood,New Jersey,US,8,39.31679916,-74.63289642,America/New_York,2020-08-18 12:04:00,2020-08-18 12:04:00
506,0NK0,,Berdick Field,Cattaraugus,New York,US,1690,42.33399963,-78.79090118,America/New_York,2020-08-18 12:04:00,2020-08-18 12:04:00
507,0NK1,,Spring Brook Airport,Central Square,New York,US,450,43.36169815,-76.22019959,America/New_York,2020-08-18 12:04:00,2020-08-18 12:04:00
508,0NK2,,Westwind Farm Airport,Charlton,New York,US,800,42.98339844,-74.0161972,America/New_York,2020-08-18 12:04:00,2020-08-18 12:04:00
509,0NK3,,Seven Gullies Airport,Groveland,New York,US,600,42.69589996,-77.79219818,America/New_York,2020-08-18 12:04:00,2020-08-18 12:04:00
510,0NK6,,Lapeer Flyer Airport,Marathon,New York,US,1280,42.43840027,-76.08879852,America/New_York,2020-08-18 12:04:00,2020-08-18 12:04:00
511,0NK8,,Rocky Reef Farm Airport,Attlebury,New York,US,450,41.92089844,-73.67040253,America/New_York,2020-08-18 12:04:00,2020-08-18 12:04:00
512,0NK9,,Lakeview Airport,Chittenango,New York,US,1050,43.01029968,-75.82689667,America/New_York,2020-08-18 12:04:00,2020-08-18 12:04:00
513,0NM0,,Columbus Municipal Airport,Columbus,New Mexico,US,4024,31.82369995,-107.6269989,America/Denver,2020-08-18 12:04:00,2020-08-18 12:04:00
514,0NM7,,Negrito Airstrip,Reserve,New Mexico,US,8143,33.52090073,-108.5429993,America/Denver,2020-08-18 12:04:00,2020-08-18 12:04:00
515,0NY0,,Bennetts Airport,North Creek,New York,US,1040,43.70009995,-73.98290253,America/New_York,2020-08-18 12:04:00,2020-08-18 12:04:00
516,0NY1,,Russell Field,Northumberland,New York,US,260,43.1391983,-73.65319824,America/New_York,2020-08-18 12:04:00,2020-08-18 12:04:00
517,0NY3,,Kermizian Airport,Ohio,New York,US,1440,43.31399918,-74.93209839,America/New_York,2020-08-18 12:04:00,2020-08-18 12:04:00
518,0NY7,,Murphys Landing Strip,Perth,New York,US,940,43.03760147,-74.18430328,America/New_York,2020-08-18 12:04:00,2020-08-18 12:04:00
519,0NY8,,Wenskoski Field,Perth,New York,US,800,42.99729919,-74.24539948,America/New_York,2020-08-18 12:04:00,2020-08-18 12:04:00
520,0OH2,,Jenkins Field,North Hampton,Ohio,US,1080,39.97060013,-83.91159821,America/New_York,2020-08-18 12:04:00,2020-08-18 12:04:00
521,0OH6,,Fry Field,Spring Valley,Ohio,US,775,39.6006012,-84.0196991,America/New_York,2020-08-18 12:04:00,2020-08-18 12:04:00
522,0OH7,,Apple Airport,Piqua,Ohio,US,1000,40.1432991,-84.17189789,America/New_York,2020-08-18 12:04:00,2020-08-18 12:04:00
523,0OH8,,Fry Airport,Piqua,Ohio,US,900,40.18840027,-84.25610352,America/New_York,2020-08-18 12:04:00,2020-08-18 12:04:00
524,0OH9,,Parknavy STOLport,Plain City,Ohio,US,943,40.07170105,-83.22989655,America/New_York,2020-08-18 12:04:00,2020-08-18 12:04:00
525,0OI2,,Unger Field,Greenfield,Ohio,US,940,39.35979843,-83.41770172,America/New_York,2020-08-18 12:04:00,2020-08-18 12:04:00
526,0OI3,,Galloway Airport,Sandusky,Ohio,US,643,41.38209915,-82.7161026,America/New_York,2020-08-18 12:04:00,2020-08-18 12:04:00
527,0OI4,,Salt Box Airport,Hiram,Ohio,US,1250,41.32426453,-81.15930939,America/New_York,2020-08-18 12:04:00,2020-08-18 12:04:00
528,0OI6,,Victor's Landing Airport,Kingsville,Ohio,US,860,41.83810043,-80.64369965,America/New_York,2020-08-18 12:04:00,2020-08-18 12:04:00
529,0OI9,,Hidden Quarry Airport,Lucasville,Ohio,US,830,38.89450073,-83.1135025,America/New_York,2020-08-18 12:04:00,2020-08-18 12:04:00
530,0OK0,,Edmond Airport,Edmond,Oklahoma,US,1169,35.6833992,-97.43360138,America/Chicago,2020-08-18 12:04:00,2020-08-18 12:04:00
531,0OK1,,Mckey Airport,Elmore City,Oklahoma,US,1056,34.6570015,-97.40170288,America/Chicago,2020-08-18 12:04:00,2020-08-18 12:04:00
532,0OK3,,Mckinley Ranch Airport,Geary,Oklahoma,US,1420,35.61949921,-98.52259827,America/Chicago,2020-08-18 12:04:00,2020-08-18 12:04:00
533,0OK4,,Rock Creek Farm Airport,Coal Gate,Oklahoma,US,730,34.66059875,-96.25360107,America/Chicago,2020-08-18 12:04:00,2020-08-18 12:04:00
534,0OK5,,Chappell Airport,Guthrie,Oklahoma,US,1070,35.88890076,-97.40029907,America/Chicago,2020-08-18 12:04:00,2020-08-18 12:04:00
535,0OK6,,Ellis/Harvey Airport,Guthrie,Oklahoma,US,1220,35.80170059,-97.38610077,America/Chicago,2020-08-18 12:04:00,2020-08-18 12:04:00
536,0OK8,,Cade's Airport,Covington,Oklahoma,US,1140,36.29249954,-97.5931015,America/Chicago,2020-08-18 12:04:00,2020-08-18 12:04:00
537,0OK9,,Crystal Airport,Jennings,Oklahoma,US,1016,36.21340179,-96.63700104,America/Chicago,2020-08-18 12:04:00,2020-08-18 12:04:00
538,0OR3,,Long Ranch Airport,Merrill,Oregon,US,4090,42.01900101,-121.7040024,America/Los_Angeles,2020-08-18 12:04:00,2020-08-18 12:04:00
539,0OR5,,East Oregon Cattle Co Airport,Eagle Point,Oregon,US,1345,42.50350189,-122.8550034,America/Los_Angeles,2020-08-18 12:04:00,2020-08-18 12:04:00
540,0OR6,,Rome Service Airport,Rome,Oregon,US,3387,42.83399963,-117.6289978,America/Boise,2020-08-18 12:04:00,2020-08-18 12:04:00
541,0OR7,,Marr Field,Monmouth,Oregon,US,275,44.85400009,-123.2639999,America/Los_Angeles,2020-08-18 12:04:00,2020-08-18 12:04:00
542,0OR8,,Sutton on Rogue Airport,White City,Oregon,US,1260,42.48479843,-122.8659973,America/Los_Angeles,2020-08-18 12:04:00,2020-08-18 12:04:00
543,0OR9,,Hanel Field,Mount Hood,Oregon,US,1626,45.59260178,-121.5490036,America/Los_Angeles,2020-08-18 12:04:00,2020-08-18 12:04:00
544,0PA0,,Philadelphia Gliderport,Hilltown,Pennsylvania,US,670,40.32839966,-75.24130249,America/New_York,2020-08-18 12:04:00,2020-08-18 12:04:00
545,0PA2,,Haunstein Ultralightport,Shermans Dale,Pennsylvania,US,600,40.31679916,-77.12470245,America/New_York,2020-08-18 12:04:00,2020-08-18 12:04:00
546,0PA3,,Robbins Farm Airport,Troy,Pennsylvania,US,1207,41.74950027,-76.7602005,America/New_York,2020-08-18 12:04:00,2020-08-18 12:04:00
547,0PA4,,Ecko Field,Hummelstown,Pennsylvania,US,380,40.23759842,-76.72470093,America/New_York,2020-08-18 12:04:00,2020-08-18 12:04:00
548,0PA5,,Fisher Airport,Franklin,Pennsylvania,US,1500,41.49449921,-79.8309021,America/New_York,2020-08-18 12:04:00,2020-08-18 12:04:00
549,0PA6,,Hostetler Airport,Huntingdon,Pennsylvania,US,760,40.63090134,-77.85030365,America/New_York,2020-08-18 12:04:00,2020-08-18 12:04:00
550,0PA7,,Linvill Airport,Media,Pennsylvania,US,180,39.88479996,-75.41490173,America/New_York,2020-08-18 12:04:00,2020-08-18 12:04:00
551,0PN0,,Fletcher Airport,Sheakeyville,Pennsylvania,US,1335,41.4435997,-80.15390015,America/New_York,2020-08-18 12:04:00,2020-08-18 12:04:00
552,0PN2,,Flying Acres Airport,Slippery Rock,Pennsylvania,US,1247,41.07310104,-80.07029724,America/New_York,2020-08-18 12:04:00,2020-08-18 12:04:00
553,0PN4,,Kitner Airport,New Bloomfield,Pennsylvania,US,960,40.41289902,-77.24140167,America/New_York,2020-08-18 12:04:00,2020-08-18 12:04:00
554,0PN5,,Nichols Airport,Spartansburg,Pennsylvania,US,1761,41.77920151,-79.5983963,America/New_York,2020-08-18 12:04:00,2020-08-18 12:04:00
555,0PN6,,Memmi Airport,Three Springs,Pennsylvania,US,1138,40.16899872,-77.99250031,America/New_York,2020-08-18 12:04:00,2020-08-18 12:04:00
556,0PN7,,Drillmore Acres Airport,Newburg,Pennsylvania,US,680,40.12829971,-77.63140106,America/New_York,2020-08-18 12:04:00,2020-08-18 12:04:00
557,0PN8,,Shriver Airport,Titusville,Pennsylvania,US,1560,41.61669922,-79.68309784,America/New_York,2020-08-18 12:04:00,2020-08-18 12:04:00
558,0PN9,,Paul Personal Use Airport,Titusville,Pennsylvania,US,1645,41.7195015,-79.67780304,America/New_York,2020-08-18 12:04:00,2020-08-18 12:04:00
559,0PS0,,Frederick Airpark,Tylersburg,Pennsylvania,US,1560,41.3708992,-79.34169769,America/New_York,2020-08-18 12:04:00,2020-08-18 12:04:00
560,0PS3,,Carsonville Airport,Carsonville,Pennsylvania,US,800,40.49039841,-76.76660156,America/New_York,2020-08-18 12:04:00,2020-08-18 12:04:00
561,0PS4,,Old Orchard Airport,Curwensville,Pennsylvania,US,1980,41.00839996,-78.56089783,America/New_York,2020-08-18 12:04:00,2020-08-18 12:04:00
562,0PS7,,Harman Airport,Elizabethville,Pennsylvania,US,720,40.52230072,-76.84549713,America/New_York,2020-08-18 12:04:00,2020-08-18 12:04:00
563,0SD0,,Lenling Airport,Glencross,South Dakota,US,2142,45.42499924,-100.8919983,America/Denver,2020-08-18 12:04:00,2020-08-18 12:04:00
564,0SD1,,Lodi Airport,Wakonda,South Dakota,US,1200,42.97219849,-96.98020172,America/Chicago,2020-08-18 12:04:00,2020-08-18 12:04:00
565,0SD3,,Bledsoe Ranch Airport,Hoover,South Dakota,US,2872,45.26940155,-103.2170029,America/Denver,2020-08-18 12:04:00,2020-08-18 12:04:00
566,0SD6,,Oasis Ranch Airport,Philip,South Dakota,US,2580,44.28889847,-101.8259964,America/Denver,2020-08-18 12:04:00,2020-08-18 12:04:00
567,0SD7,,Porch Ranch Airport,Wanblee,South Dakota,US,2775,43.5243988,-101.7340012,America/Denver,2020-08-18 12:04:00,2020-08-18 12:04:00
568,0SD8,,Juhnke Airport,Vivian,South Dakota,US,1900,43.78279877,-100.2929993,America/Chicago,2020-08-18 12:04:00,2020-08-18 12:04:00
569,0TA1,,Buddy Harmel Airport,Halfway,Texas,US,3552,34.2195015,-101.9800034,America/Chicago,2020-08-18 12:04:00,2020-08-18 12:04:00
570,0TA2,,Smith Farms Airport,Halfway,Texas,US,3487,34.21670151,-101.9250031,America/Chicago,2020-08-18 12:04:00,2020-08-18 12:04:00
571,0TA3,,Tate Ranch Airport,Dryden,Texas,US,2650,30.30430031,-102.1380005,America/Chicago,2020-08-18 12:04:00,2020-08-18 12:04:00
572,0TA4,,Erco Field,Kaufman,Texas,US,395,32.4978981,-96.27050018,America/Chicago,2020-08-18 12:04:00,2020-08-18 12:04:00
573,0TA7,,Alta Vista Ranch Airport,Marfa,Texas,US,4702,30.14819908,-103.8929977,America/Chicago,2020-08-18 12:04:00,2020-08-18 12:04:00
574,0TA8,,Womack Plantation Airport,Paris,Texas,US,410,33.84870148,-95.40720367,America/Chicago,2020-08-18 12:04:00,2020-08-18 12:04:00
575,0TE0,,Robertson Ranch Airport,Comstock,Texas,US,1663,29.69300079,-101.1620026,America/Chicago,2020-08-18 12:04:00,2020-08-18 12:04:00
576,0TE3,,Buzz Field,Roaring Springs,Texas,US,2614,33.92919922,-100.8420029,America/Chicago,2020-08-18 12:04:00,2020-08-18 12:04:00
577,0TE4,,Hilltop Lakes Airport,Hilltop Lakes,Texas,US,501,31.08099937,-96.21520233,America/Chicago,2020-08-18 12:04:00,2020-08-18 12:04:00
578,0TE5,,Santa Maria Ranch Airport,Laredo,Texas,US,516,27.43379974,-99.18589783,America/Chicago,2020-08-18 12:04:00,2020-08-18 12:04:00
579,0TE6,,Gorman Airport,Gorman,Texas,US,1452,32.20429993,-98.66560364,America/Chicago,2020-08-18 12:04:00,2020-08-18 12:04:00
580,0TE7,,Lbj Ranch Airport,Johnson City,Texas,US,1515,30.25180054,-98.62249756,America/Chicago,2020-08-18 12:04:00,2020-08-18 12:04:00
581,0TN0,,R & S Buzzard Airport,Spring Hill,Tennessee,US,810,35.67670059,-86.896698,America/Chicago,2020-08-18 12:04:00,2020-08-18 12:04:00
582,0TN2,,Village Airport,Greenback,Tennessee,US,920,35.65589905,-84.1855011,America/New_York,2020-08-18 12:04:00,2020-08-18 12:04:00
583,0TN5,,Mc Donald Airport,Murfreesboro,Tennessee,US,600,35.86740112,-86.49780273,America/Chicago,2020-08-18 12:04:00,2020-08-18 12:04:00
584,0TN6,,Riner Farm Airport,Norris,Tennessee,US,1125,36.1833992,-84.09909821,America/New_York,2020-08-18 12:04:00,2020-08-18 12:04:00
585,0TS0,,Flower Mound Airport,Flower Mound,Texas,US,625,33.02289963,-97.12249756,America/Chicago,2020-08-18 12:04:00,2020-08-18 12:04:00
586,0TS1,,Dooley Airport,Justin,Texas,US,650,33.09870148,-97.27249908,America/Chicago,2020-08-18 12:04:00,2020-08-18 12:04:00
587,0TS2,,Ultralight International Ultralightport,Haslet,Texas,US,820,32.94869995,-97.3289032,America/Chicago,2020-08-18 12:04:00,2020-08-18 12:04:00
588,0TS4,,Ullrich Airport,Ledbetter,Texas,US,410,30.09189987,-96.79499817,America/Chicago,2020-08-18 12:04:00,2020-08-18 12:04:00
589,0TS5,,Lake Bay Gall Airport,Cleveland,Texas,US,230,30.44190025,-95.18630219,America/Chicago,2020-08-18 12:04:00,2020-08-18 12:04:00
590,0TS7,,Flying U Airport,Mineral Wells,Texas,US,978,32.83349991,-98.12529755,America/Chicago,2020-08-18 12:04:00,2020-08-18 12:04:00
591,0TS8,,Flying 'K' Ranch Ultralightport,Mercedes,Texas,US,81,26.15040016,-97.88359833,America/Chicago,2020-08-18 12:04:00,2020-08-18 12:04:00
592,0TS9,,Jim Roach Field,Niederwald,Texas,US,600,30.01549912,-97.73719788,America/Chicago,2020-08-18 12:04:00,2020-08-18 12:04:00
593,0TX0,,Nassau Bay Airport,Granbury,Texas,US,714,32.41960144,-97.71279907,America/Chicago,2020-08-18 12:04:00,2020-08-18 12:04:00
594,0TX1,,Pecan Plantation Airport,Granbury,Texas,US,710,32.35400009,-97.67639923,America/Chicago,2020-08-18 12:04:00,2020-08-18 12:04:00
595,0TX5,,Shiloh Airport,Flower Mound,Texas,US,635,33.02399826,-97.11969757,America/Chicago,2020-08-18 12:04:00,2020-08-18 12:04:00
596,0TX6,,Elm Creek Airpark,Seguin,Texas,US,550,29.50519943,-97.99690247,America/Chicago,2020-08-18 12:04:00,2020-08-18 12:04:00
597,0TX7,,Lazy K Acres Airport,Grapevine,Texas,US,700,32.95009995,-97.15029907,America/Chicago,2020-08-18 12:04:00,2020-08-18 12:04:00
598,0TX8,,Jacobia Field,Greenville,Texas,US,570,33.18040085,-96.04329681,America/Chicago,2020-08-18 12:04:00,2020-08-18 12:04:00
599,0TX9,,Card Aerodrome,Greenville,Texas,US,540,33.25009918,-96.11689758,America/Chicago,2020-08-18 12:04:00,2020-08-18 12:04:00
600,0VA1,,Johnson Fox Field,Bedford,Virginia,US,900,37.23350143,-79.58529663,America/New_York,2020-08-18 12:04:00,2020-08-18 12:04:00
601,0VA2,,Riverwood Airport,Iron Gate,Virginia,US,1020,37.79650116,-79.76670074,America/New_York,2020-08-18 12:04:00,2020-08-18 12:04:00
602,0VA3,,Hunt Airport,Manquin,Virginia,US,150,37.69879913,-77.09529877,America/New_York,2020-08-18 12:04:00,2020-08-18 12:04:00
603,0VA4,,Worley Field,Rocky Mount,Virginia,US,1219,36.95009995,-79.87950134,America/New_York,2020-08-18 12:04:00,2020-08-18 12:04:00
604,0VA5,,Coffman Field,Richmond,Virginia,US,280,37.69414437,-77.66089439,America/New_York,2020-08-18 12:04:00,2020-08-18 12:04:00
605,0VA7,,Flatrock Air Strip,Richmond,Virginia,US,425,37.52320099,-77.81939697,America/New_York,2020-08-18 12:04:00,2020-08-18 12:04:00
606,0VA8,,Jayarz Airport,Mannboro,Virginia,US,210,37.28580093,-77.79119873,America/New_York,2020-08-18 12:04:00,2020-08-18 12:04:00
607,0VA9,,Handy Strip,Gloucester Court House,Virginia,US,8,37.44739914,-76.45379639,America/New_York,2020-08-18 12:04:00,2020-08-18 12:04:00
608,0VI1,,Brooklyn Airport,Manquin,Virginia,US,145,37.68889999,-77.10140228,America/New_York,2020-08-18 12:04:00,2020-08-18 12:04:00
609,0WA1,,Dwight Field,Chehalis,Washington,US,350,46.61709976,-122.8259964,America/Los_Angeles,2020-08-18 12:04:00,2020-08-18 12:04:00
610,0WA2,,Curtis Airport,Curtis,Washington,US,254,46.5904007,-123.1050034,America/Los_Angeles,2020-08-18 12:04:00,2020-08-18 12:04:00
611,0WI1,,Mort's Landing Airport,Comstock,Wisconsin,US,1255,45.50719833,-92.14189911,America/Chicago,2020-08-18 12:04:00,2020-08-18 12:04:00
612,0WI2,,Doering Farms Airfield,Monches,Wisconsin,US,910,43.20140076,-88.33339691,America/Chicago,2020-08-18 12:04:00,2020-08-18 12:04:00
613,0WI4,,Snow Crest Ranch Airport,Montello,Wisconsin,US,810,43.82939911,-89.3526001,America/Chicago,2020-08-18 12:04:00,2020-08-18 12:04:00
614,0WI5,,Crash In International Airport,Husher,Wisconsin,US,755,42.79339981,-87.89060211,America/Chicago,2020-08-18 12:04:00,2020-08-18 12:04:00
615,0WI6,,Simandl Field/Private Airport,Muskego,Wisconsin,US,805,42.87360001,-88.15789795,America/Chicago,2020-08-18 12:04:00,2020-08-18 12:04:00
616,0WI7,,With Wings And A Halo Airport,Neenah,Wisconsin,US,760,44.13359833,-88.4992981,America/Chicago,2020-08-18 12:04:00,2020-08-18 12:04:00
617,0WI8,,Oconomowoc Airport,Oconomowoc,Wisconsin,US,885,43.13890076,-88.47229767,America/Chicago,2020-08-18 12:04:00,2020-08-18 12:04:00
618,0WI9,,Mc Manus Hoonch-Na-Shee-Kaw Airport,Oregon,Wisconsin,US,931,42.9314003,-89.33869934,America/Chicago,2020-08-18 12:04:00,2020-08-18 12:04:00
619,0WN0,,Rucilla's Roost Airport,Sequim,Washington,US,15,48.13729858,-123.112999,America/Los_Angeles,2020-08-18 12:04:00,2020-08-18 12:04:00
620,0WN1,,Shangri-La Airport,Selah,Washington,US,1500,46.75189972,-120.6019974,America/Los_Angeles,2020-08-18 12:04:00,2020-08-18 12:04:00
621,0WN2,,Coopers Landing,Kennewick,Washington,US,435,46.127778,-119.015,America/Los_Angeles,2020-08-18 12:04:00,2020-08-18 12:04:00
622,0WN5,,Potts Field,North Cape,Wisconsin,US,815,42.79970169,-88.04869843,America/Chicago,2020-08-18 12:04:00,2020-08-18 12:04:00
623,0WN9,,Wings For Christ Airport,Omak,Washington,US,1000,48.430464,-119.486058,America/Los_Angeles,2020-08-18 12:04:00,2020-08-18 12:04:00
624,0WY0,,Freedom Air Ranch Airport,Freedom,Wyoming,US,5698,43.039722,-111.038056,America/Denver,2020-08-18 12:04:00,2020-08-18 12:04:00
625,0WY1,,Dorsey Creek Ranch Airport,Basin,Wyoming,US,4017,44.411111,-108.163333,America/Denver,2020-08-18 12:04:00,2020-08-18 12:04:00
626,0XA4,,Seven C's Ranch Airport,Freer,Texas,US,331,27.99690056,-98.88220215,America/Chicago,2020-08-18 12:04:00,2020-08-18 12:04:00
627,0XA5,,74 Ranch Airport,Campbellton,Texas,US,320,28.68490028,-98.38279724,America/Chicago,2020-08-18 12:04:00,2020-08-18 12:04:00
628,0XA7,,Bar 3 Ranch Airport,Georgetown,Texas,US,744,30.66270065,-97.62509918,America/Chicago,2020-08-18 12:04:00,2020-08-18 12:04:00
629,0XA8,,Ohho Airport,Dripping Springs,Texas,US,1340,30.27000046,-98.10829926,America/Chicago,2020-08-18 12:04:00,2020-08-18 12:04:00
630,0XS0,,Diamond H Ranch Airport,Catarina,Texas,US,511,28.40029907,-99.55870056,America/Chicago,2020-08-18 12:04:00,2020-08-18 12:04:00
631,0XS1,,Rodgers Roost Airport,El Campo,Texas,US,129,29.28779984,-96.34970093,America/Chicago,2020-08-18 12:04:00,2020-08-18 12:04:00
632,0XS2,,John Fields Ranch Airport,Sonora,Texas,US,2342,30.55489922,-100.5339966,America/Chicago,2020-08-18 12:04:00,2020-08-18 12:04:00
633,0XS6,,Lakeside Beach Airport,Spicewood,Texas,US,800,30.50099945,-98.14700317,America/Chicago,2020-08-18 12:04:00,2020-08-18 12:04:00
634,0XS7,,Anacacho Ranch Airport,Spofford,Texas,US,1067,29.19190025,-100.2750015,America/Chicago,2020-08-18 12:04:00,2020-08-18 12:04:00
635,0XS8,,Dunbar Ranch Airport,Spofford,Texas,US,958,29.0760994,-100.375,America/Chicago,2020-08-18 12:04:00,2020-08-18 12:04:00
636,0XS9,,French Field,Bullard,Texas,US,540,32.134042,-95.339583,America/Chicago,2020-08-18 12:04:00,2020-08-18 12:04:00
637,10AK,,Hunt Strip,Wasilla,Alaska,US,200,61.59189987,-149.6779938,America/Anchorage,2020-08-18 12:04:00,2020-08-18 12:04:00
638,10AZ,,Pierce Airport,Buckeye,Arizona,US,860,33.36640167,-112.6179962,America/Phoenix,2020-08-18 12:04:00,2020-08-18 12:04:00
639,10CL,,Joe Gottlieb Field,Bakersfield,California,US,347,35.36800003,-119.1949997,America/Los_Angeles,2020-08-18 12:04:00,2020-08-18 12:04:00
640,10CO,,Silkman Farms Inc. Airport,Burlington,Colorado,US,4000,39.45470047,-102.2129974,America/Denver,2020-08-18 12:04:00,2020-08-18 12:04:00
641,10FA,,Flying Baron Estates Airport,Leesburg,Florida,US,75,28.79750061,-81.93589783,America/New_York,2020-08-18 12:04:00,2020-08-18 12:04:00
642,10FD,,Seven Feathers Airport,Dunnellon,Florida,US,68,29.00659943,-82.40460205,America/New_York,2020-08-18 12:04:00,2020-08-18 12:04:00
643,10GA,,Beaverbrook Aerodrome,Griffin,Georgia,US,910,33.32509995,-84.2983017,America/New_York,2020-08-18 12:04:00,2020-08-18 12:04:00
644,10IA,,Flyers Airport,Waterloo,Iowa,US,830,42.41669846,-92.25019836,America/Chicago,2020-08-18 12:04:00,2020-08-18 12:04:00
645,10ID,,Flat Top Airstrip,Muldoon,Idaho,US,5841,43.49440002,-113.9219971,America/Boise,2020-08-18 12:04:00,2020-08-18 12:04:00
646,10IN,,Squires Airport,Connersville,Indiana,US,1000,39.71839905,-85.04889679,America/Indiana/Indianapolis,2020-08-18 12:04:00,2020-08-18 12:04:00
647,10LA,,Industrial Helicopters Inc. Airport,Scott,Louisiana,US,35,30.24740028,-92.09600067,America/Chicago,2020-08-18 12:04:00,2020-08-18 12:04:00
648,10LS,,G & J Fly A Way Ultralightport,Youngsville,Louisiana,US,20,30.04630089,-91.99459839,America/Chicago,2020-08-18 12:04:00,2020-08-18 12:04:00
649,10MO,,Eckerts Airstrip,Williamsburg,Missouri,US,839,38.91450119,-91.70429993,America/Chicago,2020-08-18 12:04:00,2020-08-18 12:04:00
650,10MT,,Hoolie Airport,Haxby,Montana,US,2526,47.83330154,-106.4840012,America/Denver,2020-08-18 12:04:00,2020-08-18 12:04:00
651,10NC,,Johnston Farm Airport,Jackson,North Carolina,US,60,36.3431015,-77.50939941,America/New_York,2020-08-18 12:04:00,2020-08-18 12:04:00
652,10ND,,Smith Strip,Halliday,North Dakota,US,2200,47.1875,-102.3619995,America/Denver,2020-08-18 12:04:00,2020-08-18 12:04:00
653,10OH,,Zoellner Airport,Huron,Ohio,US,617,41.40280151,-82.62909698,America/New_York,2020-08-18 12:04:00,2020-08-18 12:04:00
654,10OK,,Hickory Hills Airport,Norman,Oklahoma,US,1175,35.16669846,-97.21700287,America/Chicago,2020-08-18 12:04:00,2020-08-18 12:04:00
655,10OR,,Stevens Mountain Airport,Vernonia,Oregon,US,1000,45.78929901,-123.2320023,America/Los_Angeles,2020-08-18 12:04:00,2020-08-18 12:04:00
656,10TE,,Gottwald Field,Harwood,Texas,US,440,29.66690063,-97.50029755,America/Chicago,2020-08-18 12:04:00,2020-08-18 12:04:00
657,10TN,,Flatwood Field,Lebanon,Tennessee,US,600,36.07189941,-86.35440063,America/Chicago,2020-08-18 12:04:00,2020-08-18 12:04:00
658,10TS,,Saint's Strip Ultralightport,Marion,Texas,US,980,29.55249977,-98.10310364,America/Chicago,2020-08-18 12:04:00,2020-08-18 12:04:00
659,10VA,,Nashs Airport,Appomattox,Virginia,US,785,37.38629913,-78.81310272,America/New_York,2020-08-18 12:04:00,2020-08-18 12:04:00
660,10WA,,Mullan Hill Airport,Spokane,Washington,US,2310,47.55459976,-117.413002,America/Los_Angeles,2020-08-18 12:04:00,2020-08-18 12:04:00
661,10WI,,Buds Landing Airport,Pound,Wisconsin,US,850,45.11579895,-88.1894989,America/Chicago,2020-08-18 12:04:00,2020-08-18 12:04:00
662,10WY,,Willow Creek Ranch Airport,Kaycee,Wyoming,US,5521,43.423333,-106.823611,America/Denver,2020-08-18 12:04:00,2020-08-18 12:04:00
663,10XS,,Flying S Air Ranch Airport,Brownwood,Texas,US,1447,31.77949905,-98.90930176,America/Chicago,2020-08-18 12:04:00,2020-08-18 12:04:00
664,11AK,,Rocking T. Ranch Airport,Delta Junction,Alaska,US,1190,63.99959946,-145.5019989,America/Anchorage,2020-08-18 12:04:00,2020-08-18 12:04:00
665,11AZ,,Whetstone Airport,Huachuca City,Arizona,US,4250,31.68370056,-110.2900009,America/Phoenix,2020-08-18 12:04:00,2020-08-18 12:04:00
666,11CA,,Turner Field,Fowler,California,US,300,36.6733017,-119.7220001,America/Los_Angeles,2020-08-18 12:04:00,2020-08-18 12:04:00
667,11CL,,Hansen Airport,Adelanto,California,US,2885,34.63000107,-117.6529999,America/Los_Angeles,2020-08-18 12:04:00,2020-08-18 12:04:00
668,11FA,,B & L Farms Airport,Homestead,Florida,US,9,25.58370018,-80.49980164,America/New_York,2020-08-18 12:04:00,2020-08-18 12:04:00
669,11FL,,Williams Field,Middleburg,Florida,US,88,30.04299927,-81.88089752,America/New_York,2020-08-18 12:04:00,2020-08-18 12:04:00
670,11ID,,Riddle Airport,Riddle,Idaho,US,5356,42.1855011,-116.112999,America/Boise,2020-08-18 12:04:00,2020-08-18 12:04:00
671,11II,,Atterbury Field (Camp Atterbury),Nineveh,Indiana,US,710,39.34170151,-86.03050232,America/Indiana/Indianapolis,2020-08-18 12:04:00,2020-08-18 12:04:00
672,11IN,,Jr's Airport,Danville,Indiana,US,950,39.81890106,-86.5381012,America/Indiana/Indianapolis,2020-08-18 12:04:00,2020-08-18 12:04:00
673,11KS,,Sheller's Airport,Tonganoxie,Kansas,US,1090,39.11669922,-95.14890289,America/Chicago,2020-08-18 12:04:00,2020-08-18 12:04:00
674,11LL,,Thacker Airport,Chenoa,Illinois,US,720,40.72309875,-88.76309967,America/Chicago,2020-08-18 12:04:00,2020-08-18 12:04:00
675,11LS,,Jasmine Hill Airport,Glenmora,Louisiana,US,120,30.97599983,-92.56900024,America/Chicago,2020-08-18 12:04:00,2020-08-18 12:04:00
676,11MA,,Bulljump Airport,Wareham,Massachusetts,US,60,41.80730057,-70.75839996,America/New_York,2020-08-18 12:04:00,2020-08-18 12:04:00
677,11MD,,Tim's Airport,Salisbury,Maryland,US,42,38.43330002,-75.62779999,America/New_York,2020-08-18 12:04:00,2020-08-18 12:04:00
678,11MO,,Redgate Ranch Airport,Williamsburg,Missouri,US,820,38.90169907,-91.6352005,America/Chicago,2020-08-18 12:04:00,2020-08-18 12:04:00
679,11NE,,Kaan Airport,Harrison,Nebraska,US,4650,42.44250107,-103.9160004,America/Denver,2020-08-18 12:04:00,2020-08-18 12:04:00
680,11NK,,Hop House Airpark,Fort Plain,New York,US,530,42.91389847,-74.61170197,America/New_York,2020-08-18 12:04:00,2020-08-18 12:04:00
681,11NY,,Saikkonen Airport,Spencer,New York,US,969,42.20899963,-76.4496994,America/New_York,2020-08-18 12:04:00,2020-08-18 12:04:00
682,11OA,,Hide-A-Way Hills Resort Airport,Bremen,Ohio,US,780,39.64310074,-82.46679688,America/New_York,2020-08-18 12:04:00,2020-08-18 12:04:00
683,11OG,,Unity Airport,Unity,Oregon,US,3975,44.45130157,-118.1869965,America/Los_Angeles,2020-08-18 12:04:00,2020-08-18 12:04:00
684,11OK,,Beefor Ranch Airport,Purcell,Oklahoma,US,1150,35.07229996,-97.38359833,America/Chicago,2020-08-18 12:04:00,2020-08-18 12:04:00
685,11OR,,Holiday Sky Ranch Airport,Sutherlin,Oregon,US,510,43.39350128,-123.2850037,America/Los_Angeles,2020-08-18 12:04:00,2020-08-18 12:04:00
686,11PN,,Eakin Airport,Cranberry,Pennsylvania,US,1489,41.3525,-79.732778,America/New_York,2020-08-18 12:04:00,2020-08-18 12:04:00
687,11TE,,Flying M Ranch Airport,Grandview,Texas,US,700,32.30009842,-97.20449829,America/Chicago,2020-08-18 12:04:00,2020-08-18 12:04:00
688,11TN,,Salem Field,Clarksville,Tennessee,US,425,36.47499847,-87.36669922,America/Chicago,2020-08-18 12:04:00,2020-08-18 12:04:00
689,11TS,,Pt Enterprise D&W Ranch Airport,Mexia,Texas,US,526,31.65789986,-96.41139984,America/Chicago,2020-08-18 12:04:00,2020-08-18 12:04:00
690,11TX,,Butler Airport,Sherman,Texas,US,840,33.66680145,-96.69059753,America/Chicago,2020-08-18 12:04:00,2020-08-18 12:04:00
691,11VG,,Devil's Reach Landing Airport,Oak Grove,Virginia,US,28,38.20940018,-77.00060272,America/New_York,2020-08-18 12:04:00,2020-08-18 12:04:00
692,11WA,,Homeport Airport,Spokane,Washington,US,2320,47.5237999,-117.4700012,America/Los_Angeles,2020-08-18 12:04:00,2020-08-18 12:04:00
693,12AR,,Gibbons Airport,Marvell,Arkansas,US,178,34.515444,-90.973722,America/Chicago,2020-08-18 12:04:00,2020-08-18 12:04:00
694,12AZ,,Ranta Strip,Morristown,Arizona,US,1840,33.85390091,-112.6529999,America/Phoenix,2020-08-18 12:04:00,2020-08-18 12:04:00
695,12CA,,Faber Vineyards Airport,Lodi,California,US,70,38.10960007,-121.1689987,America/Los_Angeles,2020-08-18 12:04:00,2020-08-18 12:04:00
696,12CL,,Newton Field,Stratford,California,US,194,36.1568985,-119.8499985,America/Los_Angeles,2020-08-18 12:04:00,2020-08-18 12:04:00
697,12CO,,Omega 1 STOLport,Hotchkiss,Colorado,US,6409,38.83549881,-107.8150024,America/Denver,2020-08-18 12:04:00,2020-08-18 12:04:00
698,12FA,,Hi-Acres Airport,Clermont,Florida,US,105,28.47859955,-81.71450043,America/New_York,2020-08-18 12:04:00,2020-08-18 12:04:00
699,12IA,,Plueger Airfield,Lemars,Iowa,US,1245,42.80049896,-96.13780212,America/Chicago,2020-08-18 12:04:00,2020-08-18 12:04:00
700,12ID,,Flying B Ranch Landing Strip,Salmon,Idaho,US,3647,44.9679985,-114.7330017,America/Boise,2020-08-18 12:04:00,2020-08-18 12:04:00
701,12II,,Pentecost Airport,Centerville,Indiana,US,1020,39.85620117,-84.97219849,America/Indiana/Indianapolis,2020-08-18 12:04:00,2020-08-18 12:04:00
702,12IL,,Hawker Airport,Kankakee,Illinois,US,620,41.20000076,-88.01670074,America/Chicago,2020-08-18 12:04:00,2020-08-18 12:04:00
703,12IN,,J & S Field,Darmstadt,Indiana,US,465,38.11859894,-87.64749908,America/Chicago,2020-08-18 12:04:00,2020-08-18 12:04:00
704,12KS,,Sooter Airport,Sedgwick,Kansas,US,1420,37.93529892,-97.4878006,America/Chicago,2020-08-18 12:04:00,2020-08-18 12:04:00
705,12KY,,John M. Foree Airport,New Castle,Kentucky,US,853,38.46030045,-85.16860199,America/New_York,2020-08-18 12:04:00,2020-08-18 12:04:00
706,12LA,,Kml Airport,Sulphur,Louisiana,US,20,30.27589989,-93.35739899,America/Chicago,2020-08-18 12:04:00,2020-08-18 12:04:00
707,12LL,,Lambdins Field,Wolf Lake,Illinois,US,350,37.54029846,-89.48619843,America/Chicago,2020-08-18 12:04:00,2020-08-18 12:04:00
708,12LS,,Hains Airstrip,Rayne,Louisiana,US,20,30.17860031,-92.28500366,America/Chicago,2020-08-18 12:04:00,2020-08-18 12:04:00
709,12ME,,Ridgeview Airport,Searsmont,Maine,US,240,44.32229996,-69.20729828,America/New_York,2020-08-18 12:04:00,2020-08-18 12:04:00
710,12MI,,John's Airport,Davison,Michigan,US,820,43.05170059,-83.49189758,America/Detroit,2020-08-18 12:04:00,2020-08-18 12:04:00
711,12MO,,Ferguson Farms Airport,Windsor,Missouri,US,990,38.58060074,-93.59470367,America/Chicago,2020-08-18 12:04:00,2020-08-18 12:04:00
712,12MS,,Green Acres Airport,Woodville,Mississippi,US,300,31.09309959,-91.31900024,America/Chicago,2020-08-18 12:04:00,2020-08-18 12:04:00
713,12MT,,Lincolns Field,Hingham,Montana,US,2931,48.77420044,-110.4420013,America/Denver,2020-08-18 12:04:00,2020-08-18 12:04:00
714,12NC,,Atlantic Field Mcolf Airport,Atlantic,North Carolina,US,20,34.88330078,-76.34999847,America/New_York,2020-08-18 12:04:00,2020-08-18 12:04:00
715,12ND,,Pietschtree Airstrip,Burlington,North Dakota,US,1566,48.29529953,-101.427002,America/Chicago,2020-08-18 12:04:00,2020-08-18 12:04:00
716,12NE,,Reisig Brothers Airport,Scottsbluff,Nebraska,US,3985,41.90660095,-103.6999969,America/Denver,2020-08-18 12:04:00,2020-08-18 12:04:00
717,12NH,,Gile Pond Airport,Sanbornton,New Hampshire,US,485,43.495278,-71.654444,America/New_York,2020-08-18 12:04:00,2020-08-18 12:04:00
718,12NK,,Westport Airport,Westport,New York,US,276,44.15840149,-73.43289948,America/New_York,2020-08-18 12:04:00,2020-08-18 12:04:00
719,12NM,,Columbus Stockyards Airport,Columbus,New Mexico,US,4017,31.79179955,-107.6380005,America/Denver,2020-08-18 12:04:00,2020-08-18 12:04:00
720,12OH,,Mcgregor Airfield,Brookville,Ohio,US,940,39.83480072,-84.33470154,America/New_York,2020-08-18 12:04:00,2020-08-18 12:04:00
721,12OK,,Expressway Airpark,Oklahoma City,Oklahoma,US,1070,35.54130173,-97.45310211,America/Chicago,2020-08-18 12:04:00,2020-08-18 12:04:00
722,12OR,,Skinner Ranch Airport,Jordan Valley,Oregon,US,4273,42.95130157,-117.2819977,America/Boise,2020-08-18 12:04:00,2020-08-18 12:04:00
723,12SC,,Over the Hill Airport,Elgin,South Carolina,US,250,34.14139938,-80.74669647,America/New_York,2020-08-18 12:04:00,2020-08-18 12:04:00
724,12TE,,Curtis Ranch Field,Brady,Texas,US,1740,31.31679916,-99.23370361,America/Chicago,2020-08-18 12:04:00,2020-08-18 12:04:00
725,12TN,,Riley Creek Airport,Kingston,Tennessee,US,750,35.82369995,-84.5388031,America/New_York,2020-08-18 12:04:00,2020-08-18 12:04:00
726,12TS,,Blo Airport,Mineral Wells,Texas,US,1050,32.90850067,-97.97730255,America/Chicago,2020-08-18 12:04:00,2020-08-18 12:04:00
727,12TX,,Griffin Airport,Bertram,Texas,US,1235,30.82139969,-98.08059692,America/Chicago,2020-08-18 12:04:00,2020-08-18 12:04:00
728,12VA,,Hop-Along Airport,Clifton Forge,Virginia,US,1060,37.7881012,-79.76779938,America/New_York,2020-08-18 12:04:00,2020-08-18 12:04:00
729,12WA,,Fowlers Nw 40 Airport,Spokane,Washington,US,2313,47.52069855,-117.4629974,America/Los_Angeles,2020-08-18 12:04:00,2020-08-18 12:04:00
730,12WT,,Walker Airport,Palouse,Washington,US,2450,46.911,-117.218667,America/Los_Angeles,2020-08-18 12:04:00,2020-08-18 12:04:00
731,12WY,,Black Diamond Airport,Burlington,Wyoming,US,4400,44.45,-108.384667,America/Denver,2020-08-18 12:04:00,2020-08-18 12:04:00
732,12XS,,Mc Croskey Field,Butlerville,Arkansas,US,253,34.95470047,-91.83719635,America/Chicago,2020-08-18 12:04:00,2020-08-18 12:04:00
